{
  "66463917": {
    "orig_lat": 52.3993,
    "orig_lon": 16.92926,
    "new_lat": 52.399787,
    "new_lon": 16.930242,
    "dist_m": 86,
    "query": "ul. Królowej Jadwigi, Poznań, Polska",
    "formatted": "Królowej Jadwigi, 61-001 Poznań, Polska",
    "addr": {
      "street": "ul. Królowej Jadwigi",
      "osiedle": "Inwestycja Królowej Jadwigi",
      "city": "Poznań",
      "district": "Stare Miasto",
      "confidence": "high"
    },
    "geo_city": "Poznań",
    "geo_district": null,
    "corrected": false
  },
  "66325056": {
    "orig_lat": 52.37413,
    "orig_lon": 16.95236,
    "new_lat": 52.374063,
    "new_lon": 16.952383,
    "dist_m": 8,
    "query": "ul. Unii Lubelskiej 4, Poznań, Polska",
    "formatted": "Unii Lubelskiej 4, 61-249 Poznań, Polska",
    "addr": {
      "street": "ul. Unii Lubelskiej 4",
      "osiedle": "Inwestycja Unii Lubelskiej 4",
      "city": "Poznań",
      "district": "Starołęka",
      "confidence": "high"
    },
    "geo_city": "Poznań",
    "geo_district": null,
    "corrected": false
  },
  "67711712": {
    "orig_lat": 52.44512,
    "orig_lon": 16.91291,
    "new_lat": 52.447952,
    "new_lon": 16.913516,
    "dist_m": 318,
    "query": "ul. Wojciechowskiego, Poznań, Polska",
    "formatted": "Wojciechowskiego, 61-001 Poznań, Polska",
    "addr": {
      "street": "ul. Wojciechowskiego",
      "osiedle": "Początek Piątkowo",
      "city": "Poznań",
      "district": null,
      "confidence": "high"
    },
    "geo_city": "Poznań",
    "geo_district": null,
    "corrected": true
  },
  "67528674": {
    "orig_lat": 52.40903,
    "orig_lon": 16.9041,
    "new_lat": 52.408314,
    "new_lon": 16.907432,
    "dist_m": 240,
    "query": "ul. Gajowa, Poznań, Polska",
    "formatted": "Gajowa, 61-001 Poznań, Polska",
    "addr": {
      "street": "ul. Gajowa",
      "osiedle": "Zajezdnia",
      "city": "Poznań",
      "district": "Jeżyce",
      "confidence": "high"
    },
    "geo_city": "Poznań",
    "geo_district": null,
    "corrected": true
  },
  "67778161": {
    "orig_lat": 52.41717,
    "orig_lon": 16.94397,
    "new_lat": 52.405679,
    "new_lon": 16.931277,
    "dist_m": 1541,
    "query": "null, Poznań, Polska",
    "formatted": "Poznań, Polska",
    "addr": {
      "street": "null",
      "osiedle": "Elektrovnia Garbary",
      "city": "Poznań",
      "district": "null",
      "confidence": "high"
    },
    "geo_city": "Poznań",
    "geo_district": null,
    "corrected": true
  },
  "67243186": {
    "orig_lat": 52.39885,
    "orig_lon": 16.91957,
    "new_lat": 52.398908,
    "new_lon": 16.919254,
    "dist_m": 22,
    "query": "Vilda Arte, Poznań, Polska",
    "formatted": "Mieczysława Niedziałkowskiego 11, 61-579 Poznań, Polska",
    "addr": {
      "street": null,
      "osiedle": "Vilda Arte",
      "city": "Poznań",
      "district": "Wilda",
      "confidence": "high"
    },
    "geo_city": "Poznań",
    "geo_district": null,
    "corrected": false
  },
  "66707048": {
    "orig_lat": 52.38921,
    "orig_lon": 16.85909,
    "new_lat": 52.388959,
    "new_lon": 16.858891,
    "dist_m": 31,
    "query": "ul. Smardzewska 8, Poznań, Polska",
    "formatted": "Smardzewska 8, 60-161 Poznań, Polska",
    "addr": {
      "street": "ul. Smardzewska 8",
      "osiedle": "null",
      "city": "Poznań",
      "district": "Stary Grunwald",
      "confidence": "high"
    },
    "geo_city": "Poznań",
    "geo_district": null,
    "corrected": false
  },
  "67422357": {
    "orig_lat": 52.44512,
    "orig_lon": 16.91291,
    "new_lat": 52.447952,
    "new_lon": 16.913516,
    "dist_m": 318,
    "query": "ul. Wojciechowskiego, Poznań, Polska",
    "formatted": "Wojciechowskiego, 61-001 Poznań, Polska",
    "addr": {
      "street": "ul. Wojciechowskiego",
      "osiedle": "Początek Piątkowo",
      "city": "Poznań",
      "district": null,
      "confidence": "high"
    },
    "geo_city": "Poznań",
    "geo_district": null,
    "corrected": true
  },
  "67646835": {
    "orig_lat": 52.3993,
    "orig_lon": 16.92926,
    "new_lat": 52.399787,
    "new_lon": 16.930242,
    "dist_m": 86,
    "query": "ul. Królowej Jadwigi, Poznań, Polska",
    "formatted": "Królowej Jadwigi, 61-001 Poznań, Polska",
    "addr": {
      "street": "ul. Królowej Jadwigi",
      "osiedle": "Inwestycja Królowej Jadwigi",
      "city": "Poznań",
      "district": "Stare Miasto",
      "confidence": "high"
    },
    "geo_city": "Poznań",
    "geo_district": null,
    "corrected": false
  },
  "67951931": {
    "orig_lat": 52.4457,
    "orig_lon": 16.9119,
    "new_lat": 52.447952,
    "new_lon": 16.913516,
    "dist_m": 273,
    "query": "ul. Wojciechowskiego, Poznań, Polska",
    "formatted": "Wojciechowskiego, 61-001 Poznań, Polska",
    "addr": {
      "street": "ul. Wojciechowskiego",
      "osiedle": "Piątkowo Residence",
      "city": "Poznań",
      "district": "Piątkowo",
      "confidence": "high"
    },
    "geo_city": "Poznań",
    "geo_district": null,
    "corrected": true
  },
  "67232747": {
    "orig_lat": 52.39885,
    "orig_lon": 16.91957,
    "new_lat": 52.398908,
    "new_lon": 16.919254,
    "dist_m": 22,
    "query": "Vilda Arte, Poznań, Polska",
    "formatted": "Mieczysława Niedziałkowskiego 11, 61-579 Poznań, Polska",
    "addr": {
      "street": null,
      "osiedle": "Vilda Arte",
      "city": "Poznań",
      "district": "Wilda",
      "confidence": "high"
    },
    "geo_city": "Poznań",
    "geo_district": null,
    "corrected": false
  },
  "67422320": {
    "orig_lat": 52.44512,
    "orig_lon": 16.91291,
    "new_lat": 52.447952,
    "new_lon": 16.913516,
    "dist_m": 318,
    "query": "ul. Wojciechowskiego, Poznań, Polska",
    "formatted": "Wojciechowskiego, 61-001 Poznań, Polska",
    "addr": {
      "street": "ul. Wojciechowskiego",
      "osiedle": "Początek Piątkowo",
      "city": "Poznań",
      "district": null,
      "confidence": "high"
    },
    "geo_city": "Poznań",
    "geo_district": null,
    "corrected": true
  },
  "66707097": {
    "orig_lat": 52.38921,
    "orig_lon": 16.85909,
    "new_lat": 52.388959,
    "new_lon": 16.858891,
    "dist_m": 31,
    "query": "ul. Smardzewska 8, Poznań, Polska",
    "formatted": "Smardzewska 8, 60-161 Poznań, Polska",
    "addr": {
      "street": "ul. Smardzewska 8",
      "osiedle": "null",
      "city": "Poznań",
      "district": "Stary Grunwald",
      "confidence": "high"
    },
    "geo_city": "Poznań",
    "geo_district": null,
    "corrected": false
  },
  "66293561": {
    "orig_lat": 52.36733,
    "orig_lon": 16.90355,
    "new_lat": 52.376392,
    "new_lon": 16.906422,
    "dist_m": 1026,
    "query": "ul. 28 czerwca 1956 r., Poznań, Polska",
    "formatted": "28 Czerwca 1956 r., 61-001 Poznań, Polska",
    "addr": {
      "street": "ul. 28 czerwca 1956 r.",
      "osiedle": "Osiedle 28 Czerwca 1956 r.",
      "city": "Poznań",
      "district": "Wilda",
      "confidence": "high"
    },
    "geo_city": "Poznań",
    "geo_district": null,
    "corrected": true
  },
  "96723274700067": {
    "orig_lat": 52.39885,
    "orig_lon": 16.91957,
    "new_lat": 52.398908,
    "new_lon": 16.919254,
    "dist_m": 22,
    "query": "Vilda Arte, Poznań, Polska",
    "formatted": "Mieczysława Niedziałkowskiego 11, 61-579 Poznań, Polska",
    "addr": {
      "street": null,
      "osiedle": "Vilda Arte",
      "city": "Poznań",
      "district": "Wilda",
      "confidence": "high"
    },
    "geo_city": "Poznań",
    "geo_district": null,
    "corrected": false
  },
  "66707030": {
    "orig_lat": 52.38921,
    "orig_lon": 16.85909,
    "new_lat": 52.388959,
    "new_lon": 16.858891,
    "dist_m": 31,
    "query": "ul. Smardzewska 8, Poznań, Polska",
    "formatted": "Smardzewska 8, 60-161 Poznań, Polska",
    "addr": {
      "street": "ul. Smardzewska 8",
      "osiedle": "Smardzewska 8",
      "city": "Poznań",
      "district": "Stary Grunwald",
      "confidence": "high"
    },
    "geo_city": "Poznań",
    "geo_district": null,
    "corrected": false
  },
  "67952397": {
    "orig_lat": 52.44512,
    "orig_lon": 16.91291,
    "new_lat": 52.447952,
    "new_lon": 16.913516,
    "dist_m": 318,
    "query": "ul. Wojciechowskiego, Poznań, Polska",
    "formatted": "Wojciechowskiego, 61-001 Poznań, Polska",
    "addr": {
      "street": "ul. Wojciechowskiego",
      "osiedle": "Początek Piątkowo",
      "city": "Poznań",
      "district": null,
      "confidence": "high"
    },
    "geo_city": "Poznań",
    "geo_district": null,
    "corrected": true
  },
  "67402612": {
    "orig_lat": 52.40903,
    "orig_lon": 16.9041,
    "new_lat": 52.408314,
    "new_lon": 16.907432,
    "dist_m": 240,
    "query": "ul. Gajowa, Poznań, Polska",
    "formatted": "Gajowa, 61-001 Poznań, Polska",
    "addr": {
      "street": "ul. Gajowa",
      "osiedle": "Zajezdnia",
      "city": "Poznań",
      "district": "Jeżyce",
      "confidence": "high"
    },
    "geo_city": "Poznań",
    "geo_district": null,
    "corrected": true
  },
  "66324918": {
    "orig_lat": 52.37413,
    "orig_lon": 16.95236,
    "new_lat": 52.374063,
    "new_lon": 16.952383,
    "dist_m": 8,
    "query": "ul. Unii Lubelskiej 4, Poznań, Polska",
    "formatted": "Unii Lubelskiej 4, 61-249 Poznań, Polska",
    "addr": {
      "street": "ul. Unii Lubelskiej 4",
      "osiedle": "Inwestycja Unii Lubelskiej 4",
      "city": "Poznań",
      "district": "Starołęka",
      "confidence": "high"
    },
    "geo_city": "Poznań",
    "geo_district": null,
    "corrected": false
  },
  "67951944": {
    "orig_lat": 52.4457,
    "orig_lon": 16.9119,
    "new_lat": 52.447952,
    "new_lon": 16.913516,
    "dist_m": 273,
    "query": "ul. Wojciechowskiego, Poznań, Polska",
    "formatted": "Wojciechowskiego, 61-001 Poznań, Polska",
    "addr": {
      "street": "ul. Wojciechowskiego",
      "osiedle": "Piątkowo Residence",
      "city": "Poznań",
      "district": "Piątkowo",
      "confidence": "high"
    },
    "geo_city": "Poznań",
    "geo_district": null,
    "corrected": true
  },
  "67778158": {
    "orig_lat": 52.41717,
    "orig_lon": 16.94397,
    "new_lat": 52.405679,
    "new_lon": 16.931277,
    "dist_m": 1541,
    "query": "null, Poznań, Polska",
    "formatted": "Poznań, Polska",
    "addr": {
      "street": "null",
      "osiedle": "Elektrovnia Garbary",
      "city": "Poznań",
      "district": "null",
      "confidence": "high"
    },
    "geo_city": "Poznań",
    "geo_district": null,
    "corrected": true
  },
  "67646785": {
    "orig_lat": 52.3993,
    "orig_lon": 16.92926,
    "new_lat": 52.399787,
    "new_lon": 16.930242,
    "dist_m": 86,
    "query": "ul. Królowej Jadwigi, Poznań, Polska",
    "formatted": "Królowej Jadwigi, 61-001 Poznań, Polska",
    "addr": {
      "street": "ul. Królowej Jadwigi",
      "osiedle": "Inwestycja Królowej Jadwigi 51",
      "city": "Poznań",
      "district": "Stare Miasto",
      "confidence": "high"
    },
    "geo_city": "Poznań",
    "geo_district": null,
    "corrected": false
  },
  "67422232": {
    "orig_lat": 52.40216,
    "orig_lon": 16.85464,
    "new_lat": 52.400321,
    "new_lon": 16.858324,
    "dist_m": 323,
    "query": "ul. Ptasia, Poznań, Polska",
    "formatted": "Ptasia, 61-001 Poznań, Polska",
    "addr": {
      "street": "ul. Ptasia",
      "osiedle": "Ptasia Vita",
      "city": "Poznań",
      "district": "Grunwald",
      "confidence": "high"
    },
    "geo_city": "Poznań",
    "geo_district": null,
    "corrected": true
  },
  "67402621": {
    "orig_lat": 52.40903,
    "orig_lon": 16.9041,
    "new_lat": 52.408314,
    "new_lon": 16.907432,
    "dist_m": 240,
    "query": "Gajowa, Poznań, Polska",
    "formatted": "Gajowa, 61-001 Poznań, Polska",
    "addr": {
      "street": "Gajowa",
      "osiedle": "Zajezdnia",
      "city": "Poznań",
      "district": "Jeżyce",
      "confidence": "high"
    },
    "geo_city": "Poznań",
    "geo_district": null,
    "corrected": true
  },
  "66324963": {
    "orig_lat": 52.37413,
    "orig_lon": 16.95236,
    "new_lat": 52.374063,
    "new_lon": 16.952383,
    "dist_m": 8,
    "query": "ul. Unii Lubelskiej 4, Starołęka, Polska",
    "formatted": "Unii Lubelskiej 4, 61-249 Poznań, Polska",
    "addr": {
      "street": "ul. Unii Lubelskiej 4",
      "osiedle": "Inwestycja Unii Lubelskiej 4",
      "city": "Starołęka",
      "district": null,
      "confidence": "high"
    },
    "geo_city": "Poznań",
    "geo_district": null,
    "corrected": false
  },
  "66707105": {
    "orig_lat": 52.38921,
    "orig_lon": 16.85909,
    "new_lat": 52.388959,
    "new_lon": 16.858891,
    "dist_m": 31,
    "query": "ul. Smardzewska 8, Poznań, Polska",
    "formatted": "Smardzewska 8, 60-161 Poznań, Polska",
    "addr": {
      "street": "ul. Smardzewska 8",
      "osiedle": null,
      "city": "Poznań",
      "district": "Stary Grunwald",
      "confidence": "high"
    },
    "geo_city": "Poznań",
    "geo_district": null,
    "corrected": false
  },
  "67646850": {
    "orig_lat": 52.3993,
    "orig_lon": 16.92926,
    "new_lat": 52.399787,
    "new_lon": 16.930242,
    "dist_m": 86,
    "query": "ul. Królowej Jadwigi, Poznań, Polska",
    "formatted": "Królowej Jadwigi, 61-001 Poznań, Polska",
    "addr": {
      "street": "ul. Królowej Jadwigi",
      "osiedle": "Inwestycja Królowej Jadwigi 51",
      "city": "Poznań",
      "district": "Stare Miasto",
      "confidence": "high"
    },
    "geo_city": "Poznań",
    "geo_district": null,
    "corrected": false
  },
  "67952386": {
    "orig_lat": 52.44512,
    "orig_lon": 16.91291,
    "new_lat": 52.447952,
    "new_lon": 16.913516,
    "dist_m": 318,
    "query": "ul. Wojciechowskiego, Poznań, Polska",
    "formatted": "Wojciechowskiego, 61-001 Poznań, Polska",
    "addr": {
      "street": "ul. Wojciechowskiego",
      "osiedle": "Początek Piątkowo",
      "city": "Poznań",
      "district": null,
      "confidence": "high"
    },
    "geo_city": "Poznań",
    "geo_district": null,
    "corrected": true
  },
  "66293361": {
    "orig_lat": 52.36733,
    "orig_lon": 16.90355,
    "new_lat": 52.376392,
    "new_lon": 16.906422,
    "dist_m": 1026,
    "query": "ul. 28 czerwca 1956 r., Poznań, Polska",
    "formatted": "28 Czerwca 1956 r., 61-001 Poznań, Polska",
    "addr": {
      "street": "ul. 28 czerwca 1956 r.",
      "osiedle": "Osiedle 28 Czerwca 1956 r.",
      "city": "Poznań",
      "district": "Wilda",
      "confidence": "high"
    },
    "geo_city": "Poznań",
    "geo_district": null,
    "corrected": true
  },
  "66325058": {
    "orig_lat": 52.37413,
    "orig_lon": 16.95236,
    "new_lat": 52.374063,
    "new_lon": 16.952383,
    "dist_m": 8,
    "query": "ul. Unii Lubelskiej 4, Starołęka, Polska",
    "formatted": "Unii Lubelskiej 4, 61-249 Poznań, Polska",
    "addr": {
      "street": "ul. Unii Lubelskiej 4",
      "osiedle": "Inwestycja Unii Lubelskiej 4",
      "city": "Starołęka",
      "district": null,
      "confidence": "high"
    },
    "geo_city": "Poznań",
    "geo_district": null,
    "corrected": false
  },
  "66707014": {
    "orig_lat": 52.38921,
    "orig_lon": 16.85909,
    "new_lat": 52.389855,
    "new_lon": 16.860674,
    "dist_m": 129,
    "query": "ul. Smardzewska, Poznań, Polska",
    "formatted": "Smardzewska, Poznań, Polska",
    "addr": {
      "street": "ul. Smardzewska",
      "osiedle": null,
      "city": "Poznań",
      "district": "Stary Grunwald",
      "confidence": "high"
    },
    "geo_city": "Poznań",
    "geo_district": null,
    "corrected": false
  },
  "67951920": {
    "orig_lat": 52.4457,
    "orig_lon": 16.9119,
    "new_lat": 52.447952,
    "new_lon": 16.913516,
    "dist_m": 273,
    "query": "ul. Wojciechowskiego, Poznań, Polska",
    "formatted": "Wojciechowskiego, 61-001 Poznań, Polska",
    "addr": {
      "street": "ul. Wojciechowskiego",
      "osiedle": "Piątkowo Residence",
      "city": "Poznań",
      "district": "Piątkowo",
      "confidence": "high"
    },
    "geo_city": "Poznań",
    "geo_district": null,
    "corrected": true
  },
  "67232737": {
    "orig_lat": 52.39885,
    "orig_lon": 16.91957,
    "new_lat": 52.398908,
    "new_lon": 16.919254,
    "dist_m": 22,
    "query": "Vilda Arte, Poznań, Polska",
    "formatted": "Mieczysława Niedziałkowskiego 11, 61-579 Poznań, Polska",
    "addr": {
      "street": null,
      "osiedle": "Vilda Arte",
      "city": "Poznań",
      "district": "Wilda",
      "confidence": "high"
    },
    "geo_city": "Poznań",
    "geo_district": null,
    "corrected": false
  },
  "67778136": {
    "orig_lat": 52.41717,
    "orig_lon": 16.94397,
    "new_lat": 52.405679,
    "new_lon": 16.931277,
    "dist_m": 1541,
    "query": "null, Poznań, Polska",
    "formatted": "Poznań, Polska",
    "addr": {
      "street": "null",
      "osiedle": "Elektrovnia Garbary",
      "city": "Poznań",
      "district": "null",
      "confidence": "high"
    },
    "geo_city": "Poznań",
    "geo_district": null,
    "corrected": true
  },
  "68092591": {
    "orig_lat": 52.41717,
    "orig_lon": 16.94397,
    "new_lat": 52.416271,
    "new_lon": 16.949954,
    "dist_m": 418,
    "query": "ul. św. Wincentego, Poznań, Polska",
    "formatted": "Świętego Wincentego, 61-001 Poznań, Polska",
    "addr": {
      "street": "ul. św. Wincentego",
      "osiedle": "Elektrovnia Garbary",
      "city": "Poznań",
      "district": null,
      "confidence": "high"
    },
    "geo_city": "Poznań",
    "geo_district": null,
    "corrected": true
  },
  "67778112": {
    "orig_lat": 52.41717,
    "orig_lon": 16.94397,
    "new_lat": 52.405679,
    "new_lon": 16.931277,
    "dist_m": 1541,
    "query": "null, Poznań, Polska",
    "formatted": "Poznań, Polska",
    "addr": {
      "street": "null",
      "osiedle": "Elektrovnia Garbary",
      "city": "Poznań",
      "district": "null",
      "confidence": "high"
    },
    "geo_city": "Poznań",
    "geo_district": null,
    "corrected": true
  },
  "66706981": {
    "orig_lat": 52.38921,
    "orig_lon": 16.85909,
    "new_lat": 52.389855,
    "new_lon": 16.860674,
    "dist_m": 129,
    "query": "ul. Smardzewska, Poznań, Polska",
    "formatted": "Smardzewska, Poznań, Polska",
    "addr": {
      "street": "ul. Smardzewska",
      "osiedle": null,
      "city": "Poznań",
      "district": "Stary Grunwald",
      "confidence": "high"
    },
    "geo_city": "Poznań",
    "geo_district": null,
    "corrected": false
  },
  "67465463": {
    "orig_lat": 52.40216,
    "orig_lon": 16.85464,
    "new_lat": 52.400321,
    "new_lon": 16.858324,
    "dist_m": 323,
    "query": "ul. Ptasia, Poznań, Polska",
    "formatted": "Ptasia, 61-001 Poznań, Polska",
    "addr": {
      "street": "ul. Ptasia",
      "osiedle": "Ptasia Vita",
      "city": "Poznań",
      "district": "Grunwald",
      "confidence": "high"
    },
    "geo_city": "Poznań",
    "geo_district": null,
    "corrected": true
  },
  "67814415": {
    "orig_lat": 52.40216,
    "orig_lon": 16.85464,
    "new_lat": 52.400321,
    "new_lon": 16.858324,
    "dist_m": 323,
    "query": "ul. Ptasia, Poznań, Polska",
    "formatted": "Ptasia, 61-001 Poznań, Polska",
    "addr": {
      "street": "ul. Ptasia",
      "osiedle": "Ptasia Vita",
      "city": "Poznań",
      "district": "Grunwald",
      "confidence": "high"
    },
    "geo_city": "Poznań",
    "geo_district": null,
    "corrected": true
  },
  "67717244": {
    "orig_lat": 52.3796,
    "orig_lon": 16.84101,
    "new_lat": 52.405679,
    "new_lon": 16.931277,
    "dist_m": 6777,
    "query": "Junique II, Poznań, Polska",
    "formatted": "Poznań, Polska",
    "addr": {
      "street": null,
      "osiedle": "Junique II",
      "city": "Poznań",
      "district": "Grunwald",
      "confidence": "high"
    },
    "geo_city": "Poznań",
    "geo_district": null,
    "corrected": true
  },
  "67422361": {
    "orig_lat": 52.44512,
    "orig_lon": 16.91291,
    "new_lat": 52.447952,
    "new_lon": 16.913516,
    "dist_m": 318,
    "query": "ul. Wojciechowskiego, Poznań, Polska",
    "formatted": "Wojciechowskiego, 61-001 Poznań, Polska",
    "addr": {
      "street": "ul. Wojciechowskiego",
      "osiedle": "Początek Piątkowo",
      "city": "Poznań",
      "district": null,
      "confidence": "high"
    },
    "geo_city": "Poznań",
    "geo_district": null,
    "corrected": true
  },
  "67076985": {
    "orig_lat": 52.44002,
    "orig_lon": 16.61879,
    "new_lat": 52.439496,
    "new_lon": 16.62013,
    "dist_m": 108,
    "query": "ul. Folwark, Jankowice, Polska",
    "formatted": "Jankowice, Polska",
    "addr": {
      "street": "ul. Folwark",
      "osiedle": "Folwark Jankowice",
      "city": "Jankowice",
      "district": null,
      "confidence": "high"
    },
    "geo_city": "Jankowice",
    "geo_district": null,
    "corrected": false
  },
  "68174861": {
    "orig_lat": 52.29455,
    "orig_lon": 16.97543,
    "new_lat": 52.285537,
    "new_lon": 16.994421,
    "dist_m": 1635,
    "query": "Kamionki, Kamionki, Polska",
    "formatted": "62-023 Kamionki, Polska",
    "addr": {
      "street": null,
      "osiedle": "Kamionki",
      "city": "Kamionki",
      "district": null,
      "confidence": "medium"
    },
    "geo_city": "Kamionki",
    "geo_district": null,
    "corrected": true
  },
  "67599144": {
    "orig_lat": 52.47494,
    "orig_lon": 17.27619,
    "new_lat": 52.47747,
    "new_lon": 17.288001,
    "dist_m": 848,
    "query": "nowoczesnym osiedlu w Pobiedziskach, Pobiedziska, Polska",
    "formatted": "62-010 Pobiedziska, Polska",
    "addr": {
      "street": null,
      "osiedle": "nowoczesnym osiedlu w Pobiedziskach",
      "city": "Pobiedziska",
      "district": null,
      "confidence": "high"
    },
    "geo_city": "Pobiedziska",
    "geo_district": null,
    "corrected": true
  },
  "67641051": {
    "orig_lat": 52.47489,
    "orig_lon": 17.27632,
    "new_lat": 52.47747,
    "new_lon": 17.288001,
    "dist_m": 842,
    "query": "nowoczesnym osiedlu w Pobiedziskach, Pobiedziska, Polska",
    "formatted": "62-010 Pobiedziska, Polska",
    "addr": {
      "street": null,
      "osiedle": "nowoczesnym osiedlu w Pobiedziskach",
      "city": "Pobiedziska",
      "district": null,
      "confidence": "high"
    },
    "geo_city": "Pobiedziska",
    "geo_district": null,
    "corrected": true
  },
  "68048191": {
    "skipped": "low_confidence",
    "addr": {
      "street": null,
      "osiedle": null,
      "city": null,
      "district": null,
      "confidence": "low"
    }
  },
  "68221181": {
    "orig_lat": 52.4353,
    "orig_lon": 17.06231,
    "new_lat": 52.43639,
    "new_lon": 17.06128,
    "dist_m": 140,
    "query": "Ostoja Gruszczyn, Gruszczyn, Polska",
    "formatted": "Noskowskiego, 62-006 Gruszczyn, Polska",
    "addr": {
      "street": null,
      "osiedle": "Ostoja Gruszczyn",
      "city": "Gruszczyn",
      "district": null,
      "confidence": "high"
    },
    "geo_city": "Gruszczyn",
    "geo_district": null,
    "corrected": false
  },
  "67180896": {
    "orig_lat": 52.207,
    "orig_lon": 17.02705,
    "new_lat": 52.20982,
    "new_lon": 17.032657,
    "dist_m": 494,
    "query": "ul. Kowalska, Radzewo, Polska",
    "formatted": "Kowalska, 62-035 Radzewo, Polska",
    "addr": {
      "street": "ul. Kowalska",
      "osiedle": null,
      "city": "Radzewo",
      "district": null,
      "confidence": "high"
    },
    "geo_city": "Radzewo",
    "geo_district": null,
    "corrected": true
  },
  "67927695": {
    "orig_lat": 52.41763,
    "orig_lon": 17.21036,
    "new_lat": 52.407872,
    "new_lon": 17.212982,
    "dist_m": 1100,
    "query": "ul. św. Jana, Gwiazdowo, Polska",
    "formatted": "Św Wojciecha, 62-025, Polska",
    "addr": {
      "street": "ul. św. Jana",
      "osiedle": "Forall Gwiazdowo",
      "city": "Gwiazdowo",
      "district": "gm. Kostrzyn",
      "confidence": "high"
    },
    "geo_city": "Powiat poznański",
    "geo_district": null,
    "corrected": true
  },
  "68221216": {
    "orig_lat": 52.42999,
    "orig_lon": 17.07322,
    "new_lat": 52.43639,
    "new_lon": 17.06128,
    "dist_m": 1078,
    "query": "Ostoja Gruszczyn, Gruszczyn, Polska",
    "formatted": "Noskowskiego, 62-006 Gruszczyn, Polska",
    "addr": {
      "street": null,
      "osiedle": "Ostoja Gruszczyn",
      "city": "Gruszczyn",
      "district": null,
      "confidence": "high"
    },
    "geo_city": "Gruszczyn",
    "geo_district": null,
    "corrected": true
  },
  "68221182": {
    "orig_lat": 52.4353,
    "orig_lon": 17.06231,
    "new_lat": 52.43639,
    "new_lon": 17.06128,
    "dist_m": 140,
    "query": "Ostoja Gruszczyn, Gruszczyn, Polska",
    "formatted": "Noskowskiego, 62-006 Gruszczyn, Polska",
    "addr": {
      "street": null,
      "osiedle": "Ostoja Gruszczyn",
      "city": "Gruszczyn",
      "district": null,
      "confidence": "high"
    },
    "geo_city": "Gruszczyn",
    "geo_district": null,
    "corrected": false
  },
  "67298951": {
    "skipped": "low_confidence",
    "addr": {
      "street": null,
      "osiedle": null,
      "city": "Poznań",
      "district": null,
      "confidence": "medium"
    }
  },
  "67927696": {
    "orig_lat": 52.41763,
    "orig_lon": 17.21036,
    "new_lat": 52.407872,
    "new_lon": 17.212982,
    "dist_m": 1100,
    "query": "ul. św. Jana, Gwiazdowo, Polska",
    "formatted": "Św Wojciecha, 62-025, Polska",
    "addr": {
      "street": "ul. św. Jana",
      "osiedle": "Forall Gwiazdowo",
      "city": "Gwiazdowo",
      "district": "Kostrzyn",
      "confidence": "high"
    },
    "geo_city": "Powiat poznański",
    "geo_district": null,
    "corrected": true
  },
  "67893169": {
    "orig_lat": 52.41763,
    "orig_lon": 17.21036,
    "new_lat": 52.407872,
    "new_lon": 17.212982,
    "dist_m": 1100,
    "query": "ul. św. Jana, Gwiazdowo, Polska",
    "formatted": "Św Wojciecha, 62-025, Polska",
    "addr": {
      "street": "ul. św. Jana",
      "osiedle": "Forall Gwiazdowo",
      "city": "Gwiazdowo",
      "district": "Kostrzyn",
      "confidence": "high"
    },
    "geo_city": "Powiat poznański",
    "geo_district": null,
    "corrected": true
  },
  "67893165": {
    "orig_lat": 52.41763,
    "orig_lon": 17.21036,
    "new_lat": 52.410282,
    "new_lon": 17.226229,
    "dist_m": 1351,
    "query": "ul. św. Jana, Kostrzyn, Polska",
    "formatted": "Jana Brzechwy, 62-025 Kostrzyn, Polska",
    "addr": {
      "street": "ul. św. Jana",
      "osiedle": "Forall Gwiazdowo",
      "city": "Kostrzyn",
      "district": "gm. Kostrzyn",
      "confidence": "high"
    },
    "geo_city": "Kostrzyn",
    "geo_district": null,
    "corrected": true
  },
  "67859055": {
    "skipped": "low_confidence",
    "addr": {
      "street": null,
      "osiedle": null,
      "city": null,
      "district": null,
      "confidence": "low"
    }
  },
  "65662391": {
    "orig_lat": 52.51811,
    "orig_lon": 16.66318,
    "new_lat": 52.518099,
    "new_lon": 16.663183,
    "dist_m": 1,
    "query": "ul.Kolejowej, Przybroda, Polska",
    "formatted": "Kolejowa, 62-090 Przybroda, Polska",
    "addr": {
      "street": "ul.Kolejowej",
      "osiedle": null,
      "city": "Przybroda",
      "district": "Rokietnica",
      "confidence": "high"
    },
    "geo_city": "Przybroda",
    "geo_district": null,
    "corrected": false
  },
  "67955931": {
    "orig_lat": 52.3553,
    "orig_lon": 17.11759,
    "new_lat": 52.361614,
    "new_lon": 17.131913,
    "dist_m": 1200,
    "query": "zamkniętym osiedlu w Gowarzewie, Gowarzewo, Polska",
    "formatted": "63-004 Gowarzewo, Polska",
    "addr": {
      "street": null,
      "osiedle": "zamkniętym osiedlu w Gowarzewie",
      "city": "Gowarzewo",
      "district": null,
      "confidence": "medium"
    },
    "geo_city": "Gowarzewo",
    "geo_district": null,
    "corrected": true
  },
  "66732188": {
    "orig_lat": 52.29766,
    "orig_lon": 17.08489,
    "new_lat": 52.299496,
    "new_lon": 17.08692,
    "dist_m": 246,
    "query": "ul. Turkusowa, Dachowa, Polska",
    "formatted": "Turkusowa, 62-023 Dachowa, Polska",
    "addr": {
      "street": "ul. Turkusowa",
      "osiedle": null,
      "city": "Dachowa",
      "district": null,
      "confidence": "high"
    },
    "geo_city": "Dachowa",
    "geo_district": null,
    "corrected": true
  },
  "68195763": {
    "skipped": "low_confidence",
    "addr": {
      "street": null,
      "osiedle": null,
      "city": "Dachowa",
      "district": null,
      "confidence": "high"
    }
  },
  "67730459": {
    "orig_lat": 52.37571,
    "orig_lon": 17.10255,
    "new_lat": 52.378324,
    "new_lon": 17.093286,
    "dist_m": 693,
    "query": "PARK Kruszewnia, Swarzędz, Polska",
    "formatted": "Białowieska, 62-020 Swarzędz, Polska",
    "addr": {
      "street": null,
      "osiedle": "PARK Kruszewnia",
      "city": "Swarzędz",
      "district": null,
      "confidence": "high"
    },
    "geo_city": "Swarzędz",
    "geo_district": null,
    "corrected": true
  },
  "66615198": {
    "skipped": "low_confidence",
    "addr": {
      "street": null,
      "osiedle": null,
      "city": "Ceradz Dolny",
      "district": null,
      "confidence": "high"
    }
  },
  "66615357": {
    "skipped": "low_confidence",
    "addr": {
      "street": null,
      "osiedle": null,
      "city": "Ceradz Dolny",
      "district": null,
      "confidence": "high"
    }
  },
  "64874220": {
    "skipped": "low_confidence",
    "addr": {
      "street": null,
      "osiedle": null,
      "city": null,
      "district": null,
      "confidence": "low"
    }
  },
  "68116767": {
    "orig_lat": 52.51359,
    "orig_lon": 16.74704,
    "new_lat": 52.553486,
    "new_lon": 16.681086,
    "dist_m": 6291,
    "query": "Pamiątkowo, Poznań, Polska",
    "formatted": "Pamiątkowo, Polska",
    "addr": {
      "street": null,
      "osiedle": "Pamiątkowo",
      "city": null,
      "district": null,
      "confidence": "medium"
    },
    "geo_city": "Pamiątkowo",
    "geo_district": null,
    "corrected": true
  },
  "96811676700067": {
    "orig_lat": 52.51359,
    "orig_lon": 16.74704,
    "new_lat": 52.553486,
    "new_lon": 16.681086,
    "dist_m": 6291,
    "query": "Pamiątkowo, Poznań, Polska",
    "formatted": "Pamiątkowo, Polska",
    "addr": {
      "street": null,
      "osiedle": "Pamiątkowo",
      "city": null,
      "district": null,
      "confidence": "medium"
    },
    "geo_city": "Pamiątkowo",
    "geo_district": null,
    "corrected": true
  },
  "68179709": {
    "orig_lat": 52.28846,
    "orig_lon": 16.96216,
    "new_lat": 52.299973,
    "new_lon": 16.957182,
    "dist_m": 1324,
    "query": "gmina Mosina, Daszewice, Polska",
    "formatted": "61-160 Daszewice, Polska",
    "addr": {
      "street": null,
      "osiedle": null,
      "city": "Daszewice",
      "district": "gmina Mosina",
      "confidence": "high"
    },
    "geo_city": "Daszewice",
    "geo_district": null,
    "corrected": true
  },
  "68154472": {
    "skipped": "low_confidence",
    "addr": {
      "street": null,
      "osiedle": null,
      "city": "Pamiątkowo",
      "district": null,
      "confidence": "high"
    }
  },
  "61146014": {
    "orig_lat": 52.5713,
    "orig_lon": 17.02807,
    "new_lat": 52.570949,
    "new_lon": 17.028179,
    "dist_m": 40,
    "query": "ul. Gnieźnieńska 47, Murowana Goślina, Polska",
    "formatted": "Gnieźnieńska 47, 62-095 Murowana Goślina, Polska",
    "addr": {
      "street": "ul. Gnieźnieńska 47",
      "osiedle": null,
      "city": "Murowana Goślina",
      "district": null,
      "confidence": "high"
    },
    "geo_city": "Murowana Goślina",
    "geo_district": null,
    "corrected": false
  },
  "67641005": {
    "skipped": "low_confidence",
    "addr": {
      "street": null,
      "osiedle": null,
      "city": "Rabowice",
      "district": null,
      "confidence": "high"
    }
  },
  "67355049": {
    "orig_lat": 52.35751,
    "orig_lon": 17.17197,
    "new_lat": 52.356553,
    "new_lon": 17.172425,
    "dist_m": 111,
    "query": "Kostrzyn, Trzek, Polska",
    "formatted": "62-025 Trzek, Polska",
    "addr": {
      "street": null,
      "osiedle": null,
      "city": "Trzek",
      "district": "Kostrzyn",
      "confidence": "high"
    },
    "geo_city": "Trzek",
    "geo_district": null,
    "corrected": false
  },
  "68224844": {
    "skipped": "low_confidence",
    "addr": {
      "street": null,
      "osiedle": null,
      "city": "Kostrzyn",
      "district": null,
      "confidence": "high"
    }
  },
  "68221231": {
    "orig_lat": 52.435,
    "orig_lon": 17.06266,
    "new_lat": 52.43639,
    "new_lon": 17.06128,
    "dist_m": 181,
    "query": "Ostoja Gruszczyn, Gruszczyn, Polska",
    "formatted": "Noskowskiego, 62-006 Gruszczyn, Polska",
    "addr": {
      "street": null,
      "osiedle": "Ostoja Gruszczyn",
      "city": "Gruszczyn",
      "district": null,
      "confidence": "high"
    },
    "geo_city": "Gruszczyn",
    "geo_district": null,
    "corrected": false
  },
  "67135916": {
    "orig_lat": 52.54238,
    "orig_lon": 16.94762,
    "new_lat": 52.535281,
    "new_lon": 16.947006,
    "dist_m": 790,
    "query": "ul. Jesionowa, Biedrusko, Polska",
    "formatted": "Jesionowa, Biedrusko, Polska",
    "addr": {
      "street": "ul. Jesionowa",
      "osiedle": "Biedrusko Osiedle Jesionowe",
      "city": "Biedrusko",
      "district": null,
      "confidence": "high"
    },
    "geo_city": "Biedrusko",
    "geo_district": null,
    "corrected": true
  },
  "67978013": {
    "orig_lat": 52.36424,
    "orig_lon": 16.55127,
    "new_lat": 52.37009,
    "new_lon": 16.551166,
    "dist_m": 651,
    "query": "Wygoda, Buk, Polska",
    "formatted": "64-320 Wygoda, Polska",
    "addr": {
      "street": null,
      "osiedle": null,
      "city": "Buk",
      "district": "Wygoda",
      "confidence": "high"
    },
    "geo_city": "Wygoda",
    "geo_district": null,
    "corrected": true
  },
  "67135922": {
    "orig_lat": 52.54238,
    "orig_lon": 16.94762,
    "new_lat": 52.535281,
    "new_lon": 16.947006,
    "dist_m": 790,
    "query": "ul. Jesionowa, Biedrusko, Polska",
    "formatted": "Jesionowa, Biedrusko, Polska",
    "addr": {
      "street": "ul. Jesionowa",
      "osiedle": "Biedrusko Osiedle Jesionowe",
      "city": "Biedrusko",
      "district": null,
      "confidence": "high"
    },
    "geo_city": "Biedrusko",
    "geo_district": null,
    "corrected": true
  },
  "68195754": {
    "orig_lat": 52.37115,
    "orig_lon": 17.14772,
    "new_lat": 52.378236,
    "new_lon": 17.166407,
    "dist_m": 1493,
    "query": "Osiedle domów parterowych, Siekierki Wielkie, Polska",
    "formatted": "62-025 Siekierki Wielkie, Polska",
    "addr": {
      "street": null,
      "osiedle": "Osiedle domów parterowych",
      "city": "Siekierki Wielkie",
      "district": null,
      "confidence": "high"
    },
    "geo_city": "Siekierki Wielkie",
    "geo_district": null,
    "corrected": true
  },
  "67135917": {
    "orig_lat": 52.54238,
    "orig_lon": 16.94762,
    "new_lat": 52.535281,
    "new_lon": 16.947006,
    "dist_m": 790,
    "query": "ul. Jesionowa, Biedrusko, Polska",
    "formatted": "Jesionowa, Biedrusko, Polska",
    "addr": {
      "street": "ul. Jesionowa",
      "osiedle": "Biedrusko Osiedle Jesionowe",
      "city": "Biedrusko",
      "district": null,
      "confidence": "high"
    },
    "geo_city": "Biedrusko",
    "geo_district": null,
    "corrected": true
  },
  "68188877": {
    "skipped": "low_confidence",
    "addr": {
      "street": null,
      "osiedle": null,
      "city": "Biedrusko",
      "district": null,
      "confidence": "high"
    }
  },
  "68187443": {
    "orig_lat": 52.37864,
    "orig_lon": 17.16658,
    "new_lat": 52.378236,
    "new_lon": 17.166407,
    "dist_m": 46,
    "query": "Osiedle domów parterowych, Siekierki Wielkie, Polska",
    "formatted": "62-025 Siekierki Wielkie, Polska",
    "addr": {
      "street": null,
      "osiedle": "Osiedle domów parterowych",
      "city": "Siekierki Wielkie",
      "district": null,
      "confidence": "high"
    },
    "geo_city": "Siekierki Wielkie",
    "geo_district": null,
    "corrected": false
  },
  "68183348": {
    "orig_lat": 52.3841,
    "orig_lon": 17.16786,
    "new_lat": 52.3979,
    "new_lon": 17.22809,
    "dist_m": 4366,
    "query": "ul. Szafirowa, Kostrzyn, Polska",
    "formatted": "62-025 Kostrzyn, Polska",
    "addr": {
      "street": "ul. Szafirowa",
      "osiedle": null,
      "city": "Kostrzyn",
      "district": null,
      "confidence": "high"
    },
    "geo_city": "Kostrzyn",
    "geo_district": null,
    "corrected": true
  },
  "68059571": {
    "orig_lat": 52.3807,
    "orig_lon": 17.16348,
    "new_lat": 50.312352,
    "new_lon": 18.617086,
    "dist_m": 251160,
    "query": "ul. Szafirowa, Siekiery Wielkie, Polska",
    "formatted": "Szafirowa, 44-121 Gliwice, Polska",
    "addr": {
      "street": "ul. Szafirowa",
      "osiedle": null,
      "city": "Siekiery Wielkie",
      "district": null,
      "confidence": "high"
    },
    "geo_city": "Gliwice",
    "geo_district": null,
    "corrected": true
  },
  "67243356": {
    "orig_lat": 52.29691,
    "orig_lon": 17.13759,
    "new_lat": 52.298378,
    "new_lon": 17.126877,
    "dist_m": 747,
    "query": "Śródka, Kleszczewo, Polska",
    "formatted": "63-006 Śródka, Polska",
    "addr": {
      "street": null,
      "osiedle": null,
      "city": "Kleszczewo",
      "district": "Śródka",
      "confidence": "high"
    },
    "geo_city": "Śródka",
    "geo_district": null,
    "corrected": true
  },
  "67908557": {
    "orig_lat": 52.35799,
    "orig_lon": 17.17172,
    "new_lat": 52.356553,
    "new_lon": 17.172425,
    "dist_m": 167,
    "query": "gmina Kostrzyn, Trzek, Polska",
    "formatted": "62-025 Trzek, Polska",
    "addr": {
      "street": null,
      "osiedle": null,
      "city": "Trzek",
      "district": "gmina Kostrzyn",
      "confidence": "high"
    },
    "geo_city": "Trzek",
    "geo_district": null,
    "corrected": false
  },
  "67771485": {
    "orig_lat": 52.3807,
    "orig_lon": 17.16348,
    "new_lat": 52.38437,
    "new_lon": 17.154325,
    "dist_m": 743,
    "query": "ul. Cichej, Siekierki Wielkie, Polska",
    "formatted": "Cicha, 62-025, Polska",
    "addr": {
      "street": "ul. Cichej",
      "osiedle": "OSIEDLE CICHE",
      "city": "Siekierki Wielkie",
      "district": null,
      "confidence": "high"
    },
    "geo_city": "Powiat poznański",
    "geo_district": null,
    "corrected": true
  },
  "66189683": {
    "orig_lat": 52.25879,
    "orig_lon": 16.61572,
    "new_lat": 51.896322,
    "new_lon": 19.585984,
    "dist_m": 206934,
    "query": "ul. Pszennej, Stryków, Polska",
    "formatted": "Stryków, Polska",
    "addr": {
      "street": "ul. Pszennej",
      "osiedle": "Osiedle Willowe",
      "city": "Stryków",
      "district": "gm. Stęszew",
      "confidence": "high"
    },
    "geo_city": "Powiat zgierski",
    "geo_district": null,
    "corrected": true
  },
  "68193624": {
    "orig_lat": 52.36039,
    "orig_lon": 16.5065,
    "new_lat": 50.156719,
    "new_lon": 19.843366,
    "dist_m": 337511,
    "query": "ul. Rolnej, Wielka Wieś, Polska",
    "formatted": "32-089 Wielka Wieś, Polska",
    "addr": {
      "street": "ul. Rolnej",
      "osiedle": null,
      "city": "Wielka Wieś",
      "district": null,
      "confidence": "high"
    },
    "geo_city": "Wielka Wieś",
    "geo_district": null,
    "corrected": true
  },
  "68196073": {
    "orig_lat": 52.35536,
    "orig_lon": 16.51956,
    "new_lat": 54.226684,
    "new_lon": 18.298361,
    "dist_m": 239307,
    "query": "Michalin, Szewce, Polska",
    "formatted": "83-047 Michalin, Polska",
    "addr": {
      "street": null,
      "osiedle": null,
      "city": "Szewce",
      "district": "Michalin",
      "confidence": "high"
    },
    "geo_city": "Michalin",
    "geo_district": null,
    "corrected": true
  },
  "68091160": {
    "orig_lat": 52.3984,
    "orig_lon": 17.16137,
    "new_lat": 52.401117,
    "new_lon": 17.157725,
    "dist_m": 390,
    "query": "ul. Zimowej, Paczkowo, Polska",
    "formatted": "Zimowa, 62-021 Paczkowo, Polska",
    "addr": {
      "street": "ul. Zimowej",
      "osiedle": null,
      "city": "Paczkowo",
      "district": "gmina Swarzędz",
      "confidence": "high"
    },
    "geo_city": "Paczkowo",
    "geo_district": null,
    "corrected": true
  },
  "67879143": {
    "orig_lat": 52.40149,
    "orig_lon": 17.15395,
    "new_lat": 52.401117,
    "new_lon": 17.157725,
    "dist_m": 259,
    "query": "ul. Zimowej, Paczkowo, Polska",
    "formatted": "Zimowa, 62-021 Paczkowo, Polska",
    "addr": {
      "street": "ul. Zimowej",
      "osiedle": null,
      "city": "Paczkowo",
      "district": "gmina Swarzędz",
      "confidence": "high"
    },
    "geo_city": "Paczkowo",
    "geo_district": null,
    "corrected": true
  },
  "67640213": {
    "orig_lat": 52.265,
    "orig_lon": 16.61805,
    "new_lat": 52.246157,
    "new_lon": 16.612579,
    "dist_m": 2128,
    "query": "gm. Stęszew, Strykowo, Polska",
    "formatted": "Strykowo, Polska",
    "addr": {
      "street": null,
      "osiedle": null,
      "city": "Strykowo",
      "district": "gm. Stęszew",
      "confidence": "high"
    },
    "geo_city": "Strykowo",
    "geo_district": null,
    "corrected": true
  },
  "67048471": {
    "orig_lat": 52.30419,
    "orig_lon": 17.10051,
    "new_lat": 52.301515,
    "new_lon": 17.086911,
    "dist_m": 971,
    "query": "gmina Kórnik, Dachowa, Polska",
    "formatted": "Dachowa, Polska",
    "addr": {
      "street": null,
      "osiedle": null,
      "city": "Dachowa",
      "district": "gmina Kórnik",
      "confidence": "high"
    },
    "geo_city": "Dachowa",
    "geo_district": null,
    "corrected": true
  },
  "68061345": {
    "skipped": "geocode_too_vague",
    "query": "Łopuchowo, Poznań, Polska",
    "formatted": "Poznań, Polska",
    "addr": {
      "street": null,
      "osiedle": "Łopuchowo",
      "city": null,
      "district": null,
      "confidence": "medium"
    },
    "note": "manual rollback: geocoder returned city-only result"
  },
  "68203851": {
    "skipped": "low_confidence",
    "addr": {
      "street": null,
      "osiedle": null,
      "city": "Kórnik",
      "district": null,
      "confidence": "medium"
    }
  },
  "67809480": {
    "orig_lat": 52.35131,
    "orig_lon": 17.21442,
    "new_lat": 52.352529,
    "new_lon": 17.213783,
    "dist_m": 142,
    "query": "Czerlejnie, Czerlejno, Polska",
    "formatted": "62-025 Czerlejno, Polska",
    "addr": {
      "street": null,
      "osiedle": "Czerlejnie",
      "city": "Czerlejno",
      "district": null,
      "confidence": "medium"
    },
    "geo_city": "Czerlejno",
    "geo_district": null,
    "corrected": false
  },
  "68196292": {
    "skipped": "low_confidence",
    "addr": {
      "street": null,
      "osiedle": null,
      "city": "Dopiewo",
      "district": null,
      "confidence": "high"
    }
  },
  "68174218": {
    "skipped": "low_confidence",
    "addr": {
      "street": null,
      "osiedle": null,
      "city": "Kórnik",
      "district": null,
      "confidence": "medium"
    }
  },
  "68127813": {
    "orig_lat": 52.3672,
    "orig_lon": 16.66729,
    "new_lat": 52.366293,
    "new_lon": 16.668512,
    "dist_m": 131,
    "query": "Więckowska, Dopiewo, Polska",
    "formatted": "Więckowska, Dopiewo, Polska",
    "addr": {
      "street": "Więckowska",
      "osiedle": null,
      "city": "Dopiewo",
      "district": null,
      "confidence": "high"
    },
    "geo_city": "Dopiewo",
    "geo_district": null,
    "corrected": false
  },
  "68091494": {
    "skipped": "low_confidence",
    "addr": {
      "street": null,
      "osiedle": null,
      "city": "Kórnik",
      "district": null,
      "confidence": "medium"
    }
  },
  "67962716": {
    "skipped": "low_confidence",
    "addr": {
      "street": null,
      "osiedle": null,
      "city": "Kórnik",
      "district": null,
      "confidence": "medium"
    }
  },
  "65663662": {
    "orig_lat": 52.3204,
    "orig_lon": 16.92448,
    "new_lat": 52.316896,
    "new_lon": 16.91253,
    "dist_m": 901,
    "query": "ul. Zaciszna, Czapury, Polska",
    "formatted": "61-160 Czapury, Polska",
    "addr": {
      "street": "ul. Zaciszna",
      "osiedle": "Osiedle Zacisze",
      "city": "Czapury",
      "district": null,
      "confidence": "high"
    },
    "geo_city": "Czapury",
    "geo_district": null,
    "corrected": true
  },
  "68221187": {
    "orig_lat": 52.4353,
    "orig_lon": 17.06231,
    "new_lat": 52.43639,
    "new_lon": 17.06128,
    "dist_m": 140,
    "query": "Ostoja Gruszczyn, Gruszczyn, Polska",
    "formatted": "Noskowskiego, 62-006 Gruszczyn, Polska",
    "addr": {
      "street": null,
      "osiedle": "Ostoja Gruszczyn",
      "city": "Gruszczyn",
      "district": null,
      "confidence": "high"
    },
    "geo_city": "Gruszczyn",
    "geo_district": null,
    "corrected": false
  },
  "68130638": {
    "orig_lat": 52.4136,
    "orig_lon": 16.68605,
    "new_lat": 52.402403,
    "new_lon": 16.668516,
    "dist_m": 1722,
    "query": "ul. Agatowej, Sierosław, Polska",
    "formatted": "Sierosław, Polska",
    "addr": {
      "street": "ul. Agatowej",
      "osiedle": null,
      "city": "Sierosław",
      "district": null,
      "confidence": "high"
    },
    "geo_city": "Sierosław",
    "geo_district": null,
    "corrected": true
  },
  "66702640": {
    "orig_lat": 52.35901,
    "orig_lon": 16.65718,
    "new_lat": 52.353448,
    "new_lon": 16.670978,
    "dist_m": 1123,
    "query": "null, Dopiewo, Polska",
    "formatted": "Dopiewo, Polska",
    "addr": {
      "street": "null",
      "osiedle": "null",
      "city": "Dopiewo",
      "district": "null",
      "confidence": "high"
    },
    "geo_city": "Dopiewo",
    "geo_district": null,
    "corrected": true
  },
  "68074913": {
    "orig_lat": 52.51359,
    "orig_lon": 16.74704,
    "new_lat": 52.553486,
    "new_lon": 16.681086,
    "dist_m": 6291,
    "query": "Pamiątkowo, Poznań, Polska",
    "formatted": "Pamiątkowo, Polska",
    "addr": {
      "street": null,
      "osiedle": "Pamiątkowo",
      "city": null,
      "district": null,
      "confidence": "medium"
    },
    "geo_city": "Pamiątkowo",
    "geo_district": null,
    "corrected": true
  },
  "68196070": {
    "skipped": "low_confidence",
    "addr": {
      "street": null,
      "osiedle": null,
      "city": "Mosina",
      "district": null,
      "confidence": "high"
    }
  },
  "67893164": {
    "orig_lat": 52.41763,
    "orig_lon": 17.21036,
    "new_lat": 52.407872,
    "new_lon": 17.212982,
    "dist_m": 1100,
    "query": "ul. św. Jana, Gwiazdowo, Polska",
    "formatted": "Św Wojciecha, 62-025, Polska",
    "addr": {
      "street": "ul. św. Jana",
      "osiedle": "Forall Gwiazdowo",
      "city": "Gwiazdowo",
      "district": "Kostrzyn",
      "confidence": "high"
    },
    "geo_city": "Powiat poznański",
    "geo_district": null,
    "corrected": true
  },
  "68000041": {
    "orig_lat": 52.51897,
    "orig_lon": 16.71284,
    "new_lat": 52.518335,
    "new_lon": 16.713279,
    "dist_m": 77,
    "query": "ul. Słonecznikowa, Mrowino, Polska",
    "formatted": "Słonecznikowa, 62-090 Mrowino, Polska",
    "addr": {
      "street": "ul. Słonecznikowa",
      "osiedle": null,
      "city": "Mrowino",
      "district": null,
      "confidence": "high"
    },
    "geo_city": "Mrowino",
    "geo_district": null,
    "corrected": false
  },
  "67973748": {
    "skipped": "low_confidence",
    "addr": {
      "street": null,
      "osiedle": null,
      "city": "Poznań",
      "district": null,
      "confidence": "low"
    }
  },
  "68095417": {
    "orig_lat": 52.45437,
    "orig_lon": 17.38709,
    "new_lat": 52.449113,
    "new_lon": 17.406131,
    "dist_m": 1417,
    "query": "osiedle Akacjowe, Wierzyce, Polska",
    "formatted": "Osiedle Akacjowe, Polska",
    "addr": {
      "street": null,
      "osiedle": "osiedle Akacjowe",
      "city": "Wierzyce",
      "district": null,
      "confidence": "high"
    },
    "geo_city": "Powiat gnieźnieński",
    "geo_district": null,
    "corrected": true
  },
  "66614540": {
    "orig_lat": 52.57181,
    "orig_lon": 17.02344,
    "new_lat": 52.571341,
    "new_lon": 17.025604,
    "dist_m": 155,
    "query": "ul. Gnieźnieńska, Murowana Goślina, Polska",
    "formatted": "Gnieźnieńska, 62-095 Murowana Goślina, Polska",
    "addr": {
      "street": "ul. Gnieźnieńska",
      "osiedle": "Osiedle Makowe",
      "city": "Murowana Goślina",
      "district": null,
      "confidence": "high"
    },
    "geo_city": "Murowana Goślina",
    "geo_district": null,
    "corrected": false
  },
  "67248592": {
    "skipped": "low_confidence",
    "addr": {
      "street": null,
      "osiedle": null,
      "city": "Konarzewo",
      "district": null,
      "confidence": "medium"
    }
  },
  "65002682": {
    "skipped": "low_confidence",
    "addr": {
      "street": null,
      "osiedle": null,
      "city": "Poznań",
      "district": null,
      "confidence": "medium"
    }
  },
  "64966722": {
    "skipped": "low_confidence",
    "addr": {
      "street": null,
      "osiedle": null,
      "city": "Poznań",
      "district": null,
      "confidence": "medium"
    }
  },
  "67297337": {
    "orig_lat": 52.24811,
    "orig_lon": 17.08378,
    "new_lat": 52.182183,
    "new_lon": 17.052621,
    "dist_m": 7632,
    "query": "gmina Kórnik, Czmoń, Polska",
    "formatted": "62-035 Czmoń, Polska",
    "addr": {
      "street": null,
      "osiedle": null,
      "city": "Czmoń",
      "district": "gmina Kórnik",
      "confidence": "high"
    },
    "geo_city": "Czmoń",
    "geo_district": null,
    "corrected": true
  },
  "96729733700067": {
    "orig_lat": 52.24811,
    "orig_lon": 17.08378,
    "new_lat": 52.182183,
    "new_lon": 17.052621,
    "dist_m": 7632,
    "query": "gmina Kórnik, Czmoń, Polska",
    "formatted": "62-035 Czmoń, Polska",
    "addr": {
      "street": null,
      "osiedle": null,
      "city": "Czmoń",
      "district": "gmina Kórnik",
      "confidence": "high"
    },
    "geo_city": "Czmoń",
    "geo_district": null,
    "corrected": true
  },
  "66477734": {
    "orig_lat": 52.43413,
    "orig_lon": 16.59335,
    "new_lat": 52.43439,
    "new_lon": 16.593358,
    "dist_m": 29,
    "query": "ul. Sokoła, Ceradz Kościelny, Polska",
    "formatted": "Sokoła, 62-080 Ceradz Kościelny, Polska",
    "addr": {
      "street": "ul. Sokoła",
      "osiedle": null,
      "city": "Ceradz Kościelny",
      "district": null,
      "confidence": "high"
    },
    "geo_city": "Ceradz Kościelny",
    "geo_district": null,
    "corrected": false
  },
  "68195757": {
    "skipped": "low_confidence",
    "addr": {
      "street": null,
      "osiedle": null,
      "city": "Dachowa",
      "district": null,
      "confidence": "high"
    }
  },
  "67751279": {
    "orig_lat": 52.40823,
    "orig_lon": 17.21717,
    "new_lat": 52.417731,
    "new_lon": 17.211193,
    "dist_m": 1132,
    "query": "Gwiazdowo, Kostrzyn, Polska",
    "formatted": "Gwiazdowo, Polska",
    "addr": {
      "street": null,
      "osiedle": "Gwiazdowo",
      "city": "Kostrzyn",
      "district": null,
      "confidence": "high"
    },
    "geo_city": "Gwiazdowo",
    "geo_district": null,
    "corrected": true
  },
  "68144755": {
    "skipped": "low_confidence",
    "addr": {
      "street": null,
      "osiedle": null,
      "city": "Szczytniki",
      "district": null,
      "confidence": "high"
    }
  },
  "68144203": {
    "orig_lat": 52.29489,
    "orig_lon": 17.00743,
    "new_lat": 52.2962,
    "new_lon": 17.007759,
    "dist_m": 147,
    "query": "ul. Choinkowa, Kórnik, Polska",
    "formatted": "Choinkowa, 62-023 Szczytniki, Polska",
    "addr": {
      "street": "ul. Choinkowa",
      "osiedle": null,
      "city": "Kórnik",
      "district": null,
      "confidence": "high"
    },
    "geo_city": "Szczytniki",
    "geo_district": null,
    "corrected": false
  },
  "64365612": {
    "skipped": "low_confidence",
    "addr": {
      "street": null,
      "osiedle": null,
      "city": null,
      "district": null,
      "confidence": "low"
    }
  },
  "62644174": {
    "orig_lat": 52.38786,
    "orig_lon": 17.11767,
    "new_lat": 52.386571,
    "new_lon": 17.120146,
    "dist_m": 221,
    "query": "Zielone Rabowice, Swarzędz, Polska",
    "formatted": "Grafitowa, 62-020 Rabowice, Polska",
    "addr": {
      "street": null,
      "osiedle": "Zielone Rabowice",
      "city": "Swarzędz",
      "district": null,
      "confidence": "high"
    },
    "geo_city": "Rabowice",
    "geo_district": null,
    "corrected": true
  },
  "67364560": {
    "orig_lat": 52.49109,
    "orig_lon": 17.29391,
    "new_lat": 52.4911,
    "new_lon": 17.292986,
    "dist_m": 63,
    "query": "ul. Północna, Pobiedziska, Polska",
    "formatted": "Północna, 62-010 Pobiedziska, Polska",
    "addr": {
      "street": "ul. Północna",
      "osiedle": null,
      "city": "Pobiedziska",
      "district": null,
      "confidence": "high"
    },
    "geo_city": "Pobiedziska",
    "geo_district": null,
    "corrected": false
  },
  "68143820": {
    "skipped": "low_confidence",
    "addr": {
      "street": null,
      "osiedle": null,
      "city": null,
      "district": null,
      "confidence": "low"
    }
  },
  "68058562": {
    "skipped": "low_confidence",
    "addr": {
      "street": null,
      "osiedle": null,
      "city": "Kórnik",
      "district": null,
      "confidence": "high"
    }
  },
  "67875979": {
    "skipped": "low_confidence",
    "addr": {
      "street": null,
      "osiedle": null,
      "city": "Gowarzewo",
      "district": null,
      "confidence": "high"
    }
  },
  "67734825": {
    "orig_lat": 52.4862,
    "orig_lon": 16.72952,
    "new_lat": 52.490072,
    "new_lon": 16.731763,
    "dist_m": 457,
    "query": "ul. Rokietnicka, Napachanie, Polska",
    "formatted": "Rokietnicka, 62-090 Napachanie, Polska",
    "addr": {
      "street": "ul. Rokietnicka",
      "osiedle": null,
      "city": "Napachanie",
      "district": null,
      "confidence": "high"
    },
    "geo_city": "Napachanie",
    "geo_district": null,
    "corrected": true
  },
  "67625829": {
    "orig_lat": 52.48891,
    "orig_lon": 16.7325,
    "new_lat": 52.485423,
    "new_lon": 16.724333,
    "dist_m": 675,
    "query": "nowe osiedle w Napachaniu, Napachanie, Polska",
    "formatted": "62-090 Napachanie, Polska",
    "addr": {
      "street": null,
      "osiedle": "nowe osiedle w Napachaniu",
      "city": "Napachanie",
      "district": "Rokietnica",
      "confidence": "high"
    },
    "geo_city": "Napachanie",
    "geo_district": null,
    "corrected": true
  },
  "67730513": {
    "orig_lat": 52.37571,
    "orig_lon": 17.10255,
    "new_lat": 52.378324,
    "new_lon": 17.093286,
    "dist_m": 693,
    "query": "PARK Kruszewnia, Zalasewo, Polska",
    "formatted": "Białowieska, 62-020 Swarzędz, Polska",
    "addr": {
      "street": null,
      "osiedle": "PARK Kruszewnia",
      "city": "Zalasewo",
      "district": "Swarzędz",
      "confidence": "high"
    },
    "geo_city": "Swarzędz",
    "geo_district": null,
    "corrected": true
  },
  "68207089": {
    "orig_lat": 52.32035,
    "orig_lon": 16.92338,
    "new_lat": 52.297248,
    "new_lon": 16.998717,
    "dist_m": 5730,
    "query": "Pastelowe Osiedle Nad Głuszynką, Czapury, Polska",
    "formatted": "Głuszynka, Polska",
    "addr": {
      "street": null,
      "osiedle": "Pastelowe Osiedle Nad Głuszynką",
      "city": "Czapury",
      "district": null,
      "confidence": "high"
    },
    "geo_city": null,
    "geo_district": null,
    "corrected": true
  },
  "68036148": {
    "orig_lat": 52.44804,
    "orig_lon": 16.95869,
    "new_lat": 52.448325,
    "new_lon": 16.957815,
    "dist_m": 67,
    "query": "Osiedle WITAJ, Poznań, Polska",
    "formatted": "Bielicowa 2, 61-612 Poznań, Polska",
    "addr": {
      "street": null,
      "osiedle": "Osiedle WITAJ",
      "city": "Poznań",
      "district": "Naramowice",
      "confidence": "high"
    },
    "geo_city": "Poznań",
    "geo_district": null,
    "corrected": false
  },
  "68100093": {
    "skipped": "low_confidence",
    "addr": {
      "street": null,
      "osiedle": null,
      "city": null,
      "district": null,
      "confidence": "low"
    }
  },
  "68196296": {
    "skipped": "low_confidence",
    "addr": {
      "street": null,
      "osiedle": null,
      "city": null,
      "district": null,
      "confidence": "low"
    }
  },
  "63529534": {
    "orig_lat": 52.31547,
    "orig_lon": 16.87666,
    "new_lat": 52.315474,
    "new_lon": 16.876659,
    "dist_m": 0,
    "query": "ul. Krzywej, Łęczyca, Polska",
    "formatted": "Krzywa, 62-051 Łęczyca, Polska",
    "addr": {
      "street": "ul. Krzywej",
      "osiedle": null,
      "city": "Łęczyca",
      "district": null,
      "confidence": "high"
    },
    "geo_city": "Łęczyca",
    "geo_district": null,
    "corrected": false
  },
  "68183143": {
    "skipped": "low_confidence",
    "addr": {
      "street": null,
      "osiedle": null,
      "city": null,
      "district": null,
      "confidence": "low"
    }
  },
  "66823560": {
    "orig_lat": 52.4591,
    "orig_lon": 16.62191,
    "new_lat": 52.471837,
    "new_lon": 16.663912,
    "dist_m": 3178,
    "query": "ul. Szkolna, Tarnowo Podgórne, Polska",
    "formatted": "Szkolna, 62-080 Tarnowo Podgórne, Polska",
    "addr": {
      "street": "ul. Szkolna",
      "osiedle": null,
      "city": "Tarnowo Podgórne",
      "district": null,
      "confidence": "high"
    },
    "geo_city": "Tarnowo Podgórne",
    "geo_district": null,
    "corrected": true
  },
  "65898079": {
    "orig_lat": 52.34897,
    "orig_lon": 17.02047,
    "new_lat": 52.349128,
    "new_lon": 17.020284,
    "dist_m": 22,
    "query": "ul. Biesiadna, Poznań, Polska",
    "formatted": "Biesiadna, 61-324 Poznań, Polska",
    "addr": {
      "street": "ul. Biesiadna",
      "osiedle": null,
      "city": "Poznań",
      "district": "Szczepankowo",
      "confidence": "high"
    },
    "geo_city": "Poznań",
    "geo_district": null,
    "corrected": false
  },
  "60792257": {
    "orig_lat": 52.41944,
    "orig_lon": 17.22844,
    "new_lat": 52.419566,
    "new_lon": 17.228893,
    "dist_m": 34,
    "query": "Enklawa Nad Jeziorem, Tarnowo, Polska",
    "formatted": "Tarnowo, Polska",
    "addr": {
      "street": null,
      "osiedle": "Enklawa Nad Jeziorem",
      "city": "Tarnowo",
      "district": "Kostrzyn",
      "confidence": "high"
    },
    "geo_city": "Tarnowo",
    "geo_district": null,
    "corrected": false
  },
  "66478926": {
    "skipped": "low_confidence",
    "addr": {
      "street": null,
      "osiedle": null,
      "city": "Poznań",
      "district": null,
      "confidence": "medium"
    }
  },
  "67810021": {
    "orig_lat": 52.35454,
    "orig_lon": 17.01192,
    "new_lat": 52.348787,
    "new_lon": 17.021301,
    "dist_m": 903,
    "query": "ul. Biesiadnej 12/1, Poznań, Polska",
    "formatted": "Biesiadna 12/1, 61-324 Poznań, Polska",
    "addr": {
      "street": "ul. Biesiadnej 12/1",
      "osiedle": null,
      "city": "Poznań",
      "district": null,
      "confidence": "high"
    },
    "geo_city": "Poznań",
    "geo_district": null,
    "corrected": true
  },
  "67480060": {
    "orig_lat": 52.35456,
    "orig_lon": 17.10923,
    "new_lat": 52.353391,
    "new_lon": 17.109175,
    "dist_m": 130,
    "query": "ul. Śnieżnej, Gowarzewo, Polska",
    "formatted": "Śnieżna, 63-004, Polska",
    "addr": {
      "street": "ul. Śnieżnej",
      "osiedle": null,
      "city": "Gowarzewo",
      "district": null,
      "confidence": "high"
    },
    "geo_city": "Powiat poznański",
    "geo_district": null,
    "corrected": false
  },
  "65671926": {
    "skipped": "low_confidence",
    "addr": {
      "street": null,
      "osiedle": null,
      "city": "Poznań",
      "district": null,
      "confidence": "medium"
    }
  },
  "67810150": {
    "orig_lat": 52.35454,
    "orig_lon": 17.01192,
    "new_lat": 52.348787,
    "new_lon": 17.021301,
    "dist_m": 903,
    "query": "ul. Biesiadna 12/1, Poznań, Polska",
    "formatted": "Biesiadna 12/1, 61-324 Poznań, Polska",
    "addr": {
      "street": "ul. Biesiadna 12/1",
      "osiedle": null,
      "city": "Poznań",
      "district": null,
      "confidence": "high"
    },
    "geo_city": "Poznań",
    "geo_district": null,
    "corrected": true
  },
  "65423909": {
    "orig_lat": 52.38786,
    "orig_lon": 17.11767,
    "new_lat": 52.386571,
    "new_lon": 17.120146,
    "dist_m": 221,
    "query": "Zielone Rabowice, Swarzędz, Polska",
    "formatted": "Grafitowa, 62-020 Rabowice, Polska",
    "addr": {
      "street": null,
      "osiedle": "Zielone Rabowice",
      "city": "Swarzędz",
      "district": null,
      "confidence": "high"
    },
    "geo_city": "Rabowice",
    "geo_district": null,
    "corrected": true
  },
  "47286048": {
    "orig_lat": 52.34079,
    "orig_lon": 16.71699,
    "new_lat": 52.343963,
    "new_lon": 16.71128,
    "dist_m": 524,
    "query": "ul. Młyńskiej, Konarzewo, Polska",
    "formatted": "Młyńska, 62-070 Konarzewo, Polska",
    "addr": {
      "street": "ul. Młyńskiej",
      "osiedle": null,
      "city": "Konarzewo",
      "district": "gm. Dopiewo",
      "confidence": "high"
    },
    "geo_city": "Konarzewo",
    "geo_district": null,
    "corrected": true
  },
  "67307567": {
    "orig_lat": 52.41021,
    "orig_lon": 16.67807,
    "new_lat": 52.402403,
    "new_lon": 16.668516,
    "dist_m": 1083,
    "query": "ul. Agatowa, Sierosław, Polska",
    "formatted": "Sierosław, Polska",
    "addr": {
      "street": "ul. Agatowa",
      "osiedle": null,
      "city": "Sierosław",
      "district": null,
      "confidence": "high"
    },
    "geo_city": "Sierosław",
    "geo_district": null,
    "corrected": true
  },
  "67479889": {
    "orig_lat": 52.36452,
    "orig_lon": 17.12451,
    "new_lat": 52.353391,
    "new_lon": 17.109175,
    "dist_m": 1617,
    "query": "ul. Śnieżna, Gowarzewo, Polska",
    "formatted": "Śnieżna, 63-004, Polska",
    "addr": {
      "street": "ul. Śnieżna",
      "osiedle": null,
      "city": "Gowarzewo",
      "district": null,
      "confidence": "high"
    },
    "geo_city": "Powiat poznański",
    "geo_district": null,
    "corrected": true
  },
  "67309892": {
    "orig_lat": 52.34088,
    "orig_lon": 16.71688,
    "new_lat": 52.343963,
    "new_lon": 16.71128,
    "dist_m": 512,
    "query": "ul. Młyńska, Konarzewo, Polska",
    "formatted": "Młyńska, 62-070 Konarzewo, Polska",
    "addr": {
      "street": "ul. Młyńska",
      "osiedle": null,
      "city": "Konarzewo",
      "district": "gm. Dopiewo",
      "confidence": "high"
    },
    "geo_city": "Konarzewo",
    "geo_district": null,
    "corrected": true
  },
  "68196291": {
    "skipped": "low_confidence",
    "addr": {
      "street": null,
      "osiedle": null,
      "city": "Konarzewo",
      "district": null,
      "confidence": "high"
    }
  },
  "68063578": {
    "orig_lat": 52.34396,
    "orig_lon": 16.71128,
    "new_lat": 52.340897,
    "new_lon": 16.716965,
    "dist_m": 515,
    "query": "ul. Młyńska 33/2, Konarzewo, Polska",
    "formatted": "Młyńska 33/2, 62-070 Konarzewo, Polska",
    "addr": {
      "street": "ul. Młyńska 33/2",
      "osiedle": null,
      "city": "Konarzewo",
      "district": "gmina Dopiewo",
      "confidence": "high"
    },
    "geo_city": "Konarzewo",
    "geo_district": null,
    "corrected": true
  },
  "68103573": {
    "orig_lat": 52.47481,
    "orig_lon": 16.94492,
    "new_lat": 52.488932,
    "new_lon": 16.925726,
    "dist_m": 2038,
    "query": "ul. Jaśkowiaka, Poznań, Polska",
    "formatted": "Franciszka Jaśkowiaka, 61-680 Poznań, Polska",
    "addr": {
      "street": "ul. Jaśkowiaka",
      "osiedle": null,
      "city": "Poznań",
      "district": "Morasko",
      "confidence": "high"
    },
    "geo_city": "Poznań",
    "geo_district": null,
    "corrected": true
  },
  "68103572": {
    "orig_lat": 52.48793,
    "orig_lon": 16.91606,
    "new_lat": 52.488932,
    "new_lon": 16.925726,
    "dist_m": 664,
    "query": "ul. Jaśkowiaka, Poznań, Polska",
    "formatted": "Franciszka Jaśkowiaka, 61-680 Poznań, Polska",
    "addr": {
      "street": "ul. Jaśkowiaka",
      "osiedle": null,
      "city": "Poznań",
      "district": "Morasko",
      "confidence": "high"
    },
    "geo_city": "Poznań",
    "geo_district": null,
    "corrected": true
  },
  "68035400": {
    "skipped": "low_confidence",
    "addr": {
      "street": null,
      "osiedle": null,
      "city": "Poznań",
      "district": null,
      "confidence": "medium"
    }
  },
  "62306593": {
    "orig_lat": 52.41944,
    "orig_lon": 17.22844,
    "new_lat": 52.419566,
    "new_lon": 17.228893,
    "dist_m": 34,
    "query": "Enklawa Nad Jeziorem, Tarnowo, Polska",
    "formatted": "Tarnowo, Polska",
    "addr": {
      "street": null,
      "osiedle": "Enklawa Nad Jeziorem",
      "city": "Tarnowo",
      "district": "Kostrzyn",
      "confidence": "high"
    },
    "geo_city": "Tarnowo",
    "geo_district": null,
    "corrected": false
  },
  "68219246": {
    "skipped": "low_confidence",
    "addr": {
      "street": null,
      "osiedle": null,
      "city": "Kostrzyn",
      "district": null,
      "confidence": "medium"
    }
  },
  "68195758": {
    "skipped": "low_confidence",
    "addr": {
      "street": null,
      "osiedle": null,
      "city": "Kamionki",
      "district": null,
      "confidence": "medium"
    }
  },
  "96819575800067": {
    "skipped": "low_confidence",
    "addr": {
      "street": null,
      "osiedle": null,
      "city": "Kamionki",
      "district": null,
      "confidence": "medium"
    }
  },
  "67809840": {
    "orig_lat": 52.35454,
    "orig_lon": 17.01192,
    "new_lat": 52.348787,
    "new_lon": 17.021301,
    "dist_m": 903,
    "query": "ul. Biesiadna 12/2, Poznań, Polska",
    "formatted": "Biesiadna 12/2, 61-324 Poznań, Polska",
    "addr": {
      "street": "ul. Biesiadna 12/2",
      "osiedle": null,
      "city": "Poznań",
      "district": null,
      "confidence": "high"
    },
    "geo_city": "Poznań",
    "geo_district": null,
    "corrected": true
  },
  "67810112": {
    "orig_lat": 52.35454,
    "orig_lon": 17.01192,
    "new_lat": 52.349128,
    "new_lon": 17.020284,
    "dist_m": 828,
    "query": "ul. Biesiadna, Poznań, Polska",
    "formatted": "Biesiadna, 61-324 Poznań, Polska",
    "addr": {
      "street": "ul. Biesiadna",
      "osiedle": null,
      "city": "Poznań",
      "district": null,
      "confidence": "high"
    },
    "geo_city": "Poznań",
    "geo_district": null,
    "corrected": true
  },
  "65061339": {
    "orig_lat": 52.3101,
    "orig_lon": 16.9974,
    "new_lat": 52.405679,
    "new_lon": 16.931277,
    "dist_m": 11538,
    "query": "nowo powstającym osiedlu pod Poznaniem, Poznań, Polska",
    "formatted": "Poznań, Polska",
    "addr": {
      "street": null,
      "osiedle": "nowo powstającym osiedlu pod Poznaniem",
      "city": "Poznań",
      "district": null,
      "confidence": "medium"
    },
    "geo_city": "Poznań",
    "geo_district": null,
    "corrected": true
  },
  "96506133900067": {
    "orig_lat": 52.3101,
    "orig_lon": 16.9974,
    "new_lat": 52.405679,
    "new_lon": 16.931277,
    "dist_m": 11538,
    "query": "nowo powstającym osiedlu pod Poznaniem, Poznań, Polska",
    "formatted": "Poznań, Polska",
    "addr": {
      "street": null,
      "osiedle": "nowo powstającym osiedlu pod Poznaniem",
      "city": "Poznań",
      "district": null,
      "confidence": "medium"
    },
    "geo_city": "Poznań",
    "geo_district": null,
    "corrected": true
  },
  "66680816": {
    "orig_lat": 52.3807,
    "orig_lon": 17.16348,
    "new_lat": 51.574197,
    "new_lon": 20.736773,
    "dist_m": 260624,
    "query": "ul. Jabłonowa 12, Kostrzyn, Polska",
    "formatted": "Kostrzyn 12, 26-811, Polska",
    "addr": {
      "street": "ul. Jabłonowa 12",
      "osiedle": null,
      "city": "Kostrzyn",
      "district": null,
      "confidence": "high"
    },
    "geo_city": "Kostrzyn",
    "geo_district": null,
    "corrected": true
  },
  "67725702": {
    "skipped": "low_confidence",
    "addr": {
      "street": null,
      "osiedle": null,
      "city": "Siekierki Wielkie",
      "district": null,
      "confidence": "high"
    }
  },
  "96772570200067": {
    "skipped": "low_confidence",
    "addr": {
      "street": null,
      "osiedle": null,
      "city": "Siekierki Wielkie",
      "district": null,
      "confidence": "high"
    }
  },
  "67941071": {
    "orig_lat": 52.4076,
    "orig_lon": 17.07351,
    "new_lat": 52.426454,
    "new_lon": 17.110323,
    "dist_m": 3260,
    "query": "Swarzędz, Gortatów, Polska",
    "formatted": "62-020 Gortatowo, Polska",
    "addr": {
      "street": null,
      "osiedle": null,
      "city": "Gortatów",
      "district": "Swarzędz",
      "confidence": "high"
    },
    "geo_city": "Gortatowo",
    "geo_district": null,
    "corrected": true
  },
  "65002716": {
    "skipped": "low_confidence",
    "addr": {
      "street": null,
      "osiedle": null,
      "city": "Poznań",
      "district": null,
      "confidence": "medium"
    }
  },
  "65002723": {
    "skipped": "low_confidence",
    "addr": {
      "street": null,
      "osiedle": null,
      "city": "Poznań",
      "district": null,
      "confidence": "medium"
    }
  },
  "68161528": {
    "orig_lat": 52.49199,
    "orig_lon": 16.84185,
    "new_lat": 52.493206,
    "new_lon": 16.844841,
    "dist_m": 243,
    "query": "Złotniki Park, Suchy Las, Polska",
    "formatted": "62-002 Złotniki, Polska",
    "addr": {
      "street": null,
      "osiedle": "Złotniki Park",
      "city": "Suchy Las",
      "district": null,
      "confidence": "high"
    },
    "geo_city": "Złotniki",
    "geo_district": null,
    "corrected": true
  },
  "66528890": {
    "orig_lat": 52.39177,
    "orig_lon": 16.84631,
    "new_lat": 52.392626,
    "new_lon": 16.846137,
    "dist_m": 96,
    "query": "ul. Jeleniogórska, null, Polska",
    "formatted": "Jeleniogórska, Poznań, Polska",
    "addr": {
      "street": "ul. Jeleniogórska",
      "osiedle": "null",
      "city": "null",
      "district": "null",
      "confidence": "high"
    },
    "geo_city": "Poznań",
    "geo_district": null,
    "corrected": false
  },
  "65565929": {
    "orig_lat": 52.30419,
    "orig_lon": 17.10051,
    "new_lat": 52.301515,
    "new_lon": 17.086911,
    "dist_m": 971,
    "query": "Dachowa, Robakowo, Polska",
    "formatted": "Dachowa, Polska",
    "addr": {
      "street": "Dachowa",
      "osiedle": "Nowina",
      "city": "Robakowo",
      "district": null,
      "confidence": "high"
    },
    "geo_city": "Dachowa",
    "geo_district": null,
    "corrected": true
  },
  "66583582": {
    "orig_lat": 52.30419,
    "orig_lon": 17.10051,
    "new_lat": 52.301515,
    "new_lon": 17.086911,
    "dist_m": 971,
    "query": "Dachowa, null, Polska",
    "formatted": "Dachowa, Polska",
    "addr": {
      "street": "Dachowa",
      "osiedle": "Osiedle Nowina I",
      "city": "null",
      "district": "Robakowo",
      "confidence": "high"
    },
    "geo_city": "Dachowa",
    "geo_district": null,
    "corrected": true
  },
  "67584341": {
    "orig_lat": 52.4076,
    "orig_lon": 17.07351,
    "new_lat": 52.426454,
    "new_lon": 17.110323,
    "dist_m": 3260,
    "query": "Swarzędz, Gortatów, Polska",
    "formatted": "62-020 Gortatowo, Polska",
    "addr": {
      "street": null,
      "osiedle": null,
      "city": "Gortatów",
      "district": "Swarzędz",
      "confidence": "high"
    },
    "geo_city": "Gortatowo",
    "geo_district": null,
    "corrected": true
  },
  "64772614": {
    "skipped": "low_confidence",
    "addr": {
      "street": null,
      "osiedle": null,
      "city": "Poznań",
      "district": null,
      "confidence": "medium"
    }
  },
  "67058659": {
    "orig_lat": 52.40823,
    "orig_lon": 17.21717,
    "new_lat": 52.417731,
    "new_lon": 17.211193,
    "dist_m": 1132,
    "query": "Gwiazdowo, Kostrzyn, Polska",
    "formatted": "Gwiazdowo, Polska",
    "addr": {
      "street": null,
      "osiedle": "Gwiazdowo",
      "city": "Kostrzyn",
      "district": null,
      "confidence": "high"
    },
    "geo_city": "Gwiazdowo",
    "geo_district": null,
    "corrected": true
  },
  "67893167": {
    "orig_lat": 52.41763,
    "orig_lon": 17.21036,
    "new_lat": 52.407872,
    "new_lon": 17.212982,
    "dist_m": 1100,
    "query": "ul. św. Jana, Gwiazdowo, Polska",
    "formatted": "Św Wojciecha, 62-025, Polska",
    "addr": {
      "street": "ul. św. Jana",
      "osiedle": "Forall Gwiazdowo",
      "city": "Gwiazdowo",
      "district": "Kostrzyn",
      "confidence": "high"
    },
    "geo_city": "Powiat poznański",
    "geo_district": null,
    "corrected": true
  },
  "67858986": {
    "skipped": "low_confidence",
    "addr": {
      "street": null,
      "osiedle": null,
      "city": "Kostrzyn",
      "district": null,
      "confidence": "medium"
    }
  },
  "68074991": {
    "orig_lat": 52.32035,
    "orig_lon": 16.92338,
    "new_lat": 52.297248,
    "new_lon": 16.998717,
    "dist_m": 5730,
    "query": "Pastelowe Osiedle Nad Głuszynką, Czapury, Polska",
    "formatted": "Głuszynka, Polska",
    "addr": {
      "street": null,
      "osiedle": "Pastelowe Osiedle Nad Głuszynką",
      "city": "Czapury",
      "district": null,
      "confidence": "high"
    },
    "geo_city": null,
    "geo_district": null,
    "corrected": true
  },
  "67883130": {
    "orig_lat": 52.39218,
    "orig_lon": 16.64024,
    "new_lat": 52.403787,
    "new_lon": 16.635369,
    "dist_m": 1332,
    "query": "ul. Ryżowa, Więckowice, Polska",
    "formatted": "62-070 Więckowice, Polska",
    "addr": {
      "street": "ul. Ryżowa",
      "osiedle": null,
      "city": "Więckowice",
      "district": null,
      "confidence": "high"
    },
    "geo_city": "Więckowice",
    "geo_district": null,
    "corrected": true
  },
  "68141825": {
    "orig_lat": 52.35519,
    "orig_lon": 16.71289,
    "new_lat": 52.357313,
    "new_lon": 16.712863,
    "dist_m": 236,
    "query": "Bajkowy Dopiewiec EcoVille Etap III, Dopiewiec, Polska",
    "formatted": "Marii Konopnickiej, 62-070 Dopiewiec, Polska",
    "addr": {
      "street": null,
      "osiedle": "Bajkowy Dopiewiec EcoVille Etap III",
      "city": "Dopiewiec",
      "district": null,
      "confidence": "high"
    },
    "geo_city": "Dopiewiec",
    "geo_district": null,
    "corrected": true
  },
  "67920852": {
    "orig_lat": 52.39103,
    "orig_lon": 16.59958,
    "new_lat": 52.390895,
    "new_lon": 16.599518,
    "dist_m": 16,
    "query": "ul. Malinowa 15, Niepruszewo, Polska",
    "formatted": "Malinowa 15, 64-320 Niepruszewo, Polska",
    "addr": {
      "street": "ul. Malinowa 15",
      "osiedle": null,
      "city": "Niepruszewo",
      "district": null,
      "confidence": "high"
    },
    "geo_city": "Niepruszewo",
    "geo_district": null,
    "corrected": false
  },
  "67790909": {
    "orig_lat": 52.56713,
    "orig_lon": 16.99629,
    "new_lat": 52.567178,
    "new_lon": 16.996244,
    "dist_m": 6,
    "query": "Długa, Murowana Goślina, Polska",
    "formatted": "Długa, 62-095 Murowana Goślina, Polska",
    "addr": {
      "street": "Długa",
      "osiedle": "Osiedle Zielone Wzgórza",
      "city": "Murowana Goślina",
      "district": null,
      "confidence": "high"
    },
    "geo_city": "Murowana Goślina",
    "geo_district": null,
    "corrected": false
  },
  "65866314": {
    "orig_lat": 52.4076,
    "orig_lon": 17.07351,
    "new_lat": 52.378324,
    "new_lon": 17.093286,
    "dist_m": 3521,
    "query": "PARK Kruszewnia, Swarzędz, Polska",
    "formatted": "Białowieska, 62-020 Swarzędz, Polska",
    "addr": {
      "street": null,
      "osiedle": "PARK Kruszewnia",
      "city": "Swarzędz",
      "district": null,
      "confidence": "high"
    },
    "geo_city": "Swarzędz",
    "geo_district": null,
    "corrected": true
  },
  "67828355": {
    "orig_lat": 52.4076,
    "orig_lon": 17.07351,
    "new_lat": 52.375261,
    "new_lon": 17.101816,
    "dist_m": 4077,
    "query": "gmina Swarzędz, Kruszewnia, Polska",
    "formatted": "Kruszewnia, Polska",
    "addr": {
      "street": null,
      "osiedle": null,
      "city": "Kruszewnia",
      "district": "gmina Swarzędz",
      "confidence": "high"
    },
    "geo_city": "Kruszewnia",
    "geo_district": null,
    "corrected": true
  },
  "66484229": {
    "orig_lat": 52.44947,
    "orig_lon": 16.67143,
    "new_lat": 52.483069,
    "new_lon": 16.65696,
    "dist_m": 3862,
    "query": "ul. Ustronna, Góra, Polska",
    "formatted": "Ustronna, 62-080 Góra, Polska",
    "addr": {
      "street": "ul. Ustronna",
      "osiedle": "Osiedle Góra",
      "city": "Góra",
      "district": null,
      "confidence": "high"
    },
    "geo_city": "Góra",
    "geo_district": null,
    "corrected": true
  },
  "66877129": {
    "orig_lat": 52.37452,
    "orig_lon": 17.15866,
    "new_lat": 52.373892,
    "new_lon": 17.157495,
    "dist_m": 106,
    "query": "ul. Tulecka, Siekierki Wielkie, Polska",
    "formatted": "Tulecka, 62-025, Polska",
    "addr": {
      "street": "ul. Tulecka",
      "osiedle": null,
      "city": "Siekierki Wielkie",
      "district": null,
      "confidence": "high"
    },
    "geo_city": "Powiat poznański",
    "geo_district": null,
    "corrected": false
  },
  "68152042": {
    "orig_lat": 52.47292,
    "orig_lon": 16.91572,
    "new_lat": 52.488932,
    "new_lon": 16.925726,
    "dist_m": 1905,
    "query": "ul. Jaśkowiaka, Poznań, Polska",
    "formatted": "Franciszka Jaśkowiaka, 61-680 Poznań, Polska",
    "addr": {
      "street": "ul. Jaśkowiaka",
      "osiedle": "Park Morasko",
      "city": "Poznań",
      "district": "Radajewo",
      "confidence": "high"
    },
    "geo_city": "Poznań",
    "geo_district": null,
    "corrected": true
  },
  "67390580": {
    "orig_lat": 52.34897,
    "orig_lon": 17.02047,
    "new_lat": 52.349128,
    "new_lon": 17.020284,
    "dist_m": 22,
    "query": "ul. Biesiadna, Poznań, Polska",
    "formatted": "Biesiadna, 61-324 Poznań, Polska",
    "addr": {
      "street": "ul. Biesiadna",
      "osiedle": null,
      "city": "Poznań",
      "district": "Szczepankowo",
      "confidence": "high"
    },
    "geo_city": "Poznań",
    "geo_district": null,
    "corrected": false
  },
  "68196381": {
    "orig_lat": 52.62072,
    "orig_lon": 17.11817,
    "new_lat": 52.621043,
    "new_lon": 17.117873,
    "dist_m": 41,
    "query": "ulica Pieczarkowa, Łopuchowo, Polska",
    "formatted": "Pieczarkowa, 62-093, Polska",
    "addr": {
      "street": "ulica Pieczarkowa",
      "osiedle": "Osiedle Przy Puszczy",
      "city": "Łopuchowo",
      "district": null,
      "confidence": "high"
    },
    "geo_city": "Powiat poznański",
    "geo_district": null,
    "corrected": false
  },
  "67965147": {
    "orig_lat": 52.26485,
    "orig_lon": 17.07377,
    "new_lat": 52.342513,
    "new_lon": 16.606206,
    "dist_m": 32943,
    "query": "Aurum Development, Skrzynki, Polska",
    "formatted": "62-060 Skrzynki, Polska",
    "addr": {
      "street": null,
      "osiedle": "Aurum Development",
      "city": "Skrzynki",
      "district": "gmina Kórnik",
      "confidence": "high"
    },
    "geo_city": "Skrzynki",
    "geo_district": null,
    "corrected": true
  },
  "67562469": {
    "orig_lat": 52.54306,
    "orig_lon": 16.94337,
    "new_lat": 52.542677,
    "new_lon": 16.946933,
    "dist_m": 245,
    "query": "Osiedle Natura Biedrusko, Biedrusko, Polska",
    "formatted": "Biedrusko, Polska",
    "addr": {
      "street": null,
      "osiedle": "Osiedle Natura Biedrusko",
      "city": "Biedrusko",
      "district": null,
      "confidence": "high"
    },
    "geo_city": "Biedrusko",
    "geo_district": null,
    "corrected": true
  },
  "68135558": {
    "orig_lat": 52.32058,
    "orig_lon": 16.92453,
    "new_lat": 52.316896,
    "new_lon": 16.91253,
    "dist_m": 913,
    "query": "ul. Zaciszna, Czapury, Polska",
    "formatted": "61-160 Czapury, Polska",
    "addr": {
      "street": "ul. Zaciszna",
      "osiedle": "Osiedle Zacisze",
      "city": "Czapury",
      "district": null,
      "confidence": "high"
    },
    "geo_city": "Czapury",
    "geo_district": null,
    "corrected": true
  },
  "65663618": {
    "orig_lat": 52.32054,
    "orig_lon": 16.92491,
    "new_lat": 52.316896,
    "new_lon": 16.91253,
    "dist_m": 934,
    "query": "ul. Zaciszna, Czapury, Polska",
    "formatted": "61-160 Czapury, Polska",
    "addr": {
      "street": "ul. Zaciszna",
      "osiedle": "Osiedle Zacisze",
      "city": "Czapury",
      "district": null,
      "confidence": "high"
    },
    "geo_city": "Czapury",
    "geo_district": null,
    "corrected": true
  },
  "96819638100067": {
    "orig_lat": 52.62072,
    "orig_lon": 17.11817,
    "new_lat": 52.621043,
    "new_lon": 17.117873,
    "dist_m": 41,
    "query": "ulica Pieczarkowa, Łopuchowo, Polska",
    "formatted": "Pieczarkowa, 62-093, Polska",
    "addr": {
      "street": "ulica Pieczarkowa",
      "osiedle": "Osiedle Przy Puszczy",
      "city": "Łopuchowo",
      "district": null,
      "confidence": "high"
    },
    "geo_city": "Powiat poznański",
    "geo_district": null,
    "corrected": false
  },
  "68219430": {
    "orig_lat": 52.29478,
    "orig_lon": 17.15582,
    "new_lat": 52.295032,
    "new_lon": 17.154165,
    "dist_m": 116,
    "query": "gmina Kleszczewo, Zimin, Polska",
    "formatted": "Zimin, Polska",
    "addr": {
      "street": null,
      "osiedle": null,
      "city": "Zimin",
      "district": "gmina Kleszczewo",
      "confidence": "high"
    },
    "geo_city": "Zimin",
    "geo_district": null,
    "corrected": false
  },
  "68047328": {
    "orig_lat": 52.47982,
    "orig_lon": 17.17796,
    "new_lat": 52.405679,
    "new_lon": 16.931277,
    "dist_m": 18642,
    "query": "rozwijającym się osiedlu nowych domów jednorodzinnych, Poznań, Polska",
    "formatted": "Poznań, Polska",
    "addr": {
      "street": null,
      "osiedle": "rozwijającym się osiedlu nowych domów jednorodzinnych",
      "city": null,
      "district": null,
      "confidence": "medium"
    },
    "geo_city": "Poznań",
    "geo_district": null,
    "corrected": true
  },
  "68195110": {
    "orig_lat": 52.27033,
    "orig_lon": 16.70746,
    "new_lat": 52.268363,
    "new_lon": 16.703087,
    "dist_m": 369,
    "query": "gmina Stęszew, Witobel, Polska",
    "formatted": "62-060 Witobel, Polska",
    "addr": {
      "street": null,
      "osiedle": null,
      "city": "Witobel",
      "district": "gmina Stęszew",
      "confidence": "high"
    },
    "geo_city": "Witobel",
    "geo_district": null,
    "corrected": true
  },
  "68217325": {
    "orig_lat": 52.39035,
    "orig_lon": 17.16834,
    "new_lat": 52.390308,
    "new_lon": 17.16833,
    "dist_m": 5,
    "query": "ul. Brzoskwiniowa, Siekierki Wielkie, Polska",
    "formatted": "Brzoskwiniowa, 62-025, Polska",
    "addr": {
      "street": "ul. Brzoskwiniowa",
      "osiedle": null,
      "city": "Siekierki Wielkie",
      "district": "gm. Kostrzyn",
      "confidence": "high"
    },
    "geo_city": "Powiat poznański",
    "geo_district": null,
    "corrected": false
  },
  "68162742": {
    "orig_lat": 52.45083,
    "orig_lon": 17.24351,
    "new_lat": 52.450399,
    "new_lon": 17.248129,
    "dist_m": 317,
    "query": "Promno, Pobiedziska, Polska",
    "formatted": "Promno, Polska",
    "addr": {
      "street": null,
      "osiedle": "Promno",
      "city": "Pobiedziska",
      "district": null,
      "confidence": "high"
    },
    "geo_city": "Promno",
    "geo_district": null,
    "corrected": true
  },
  "67227187": {
    "orig_lat": 52.26491,
    "orig_lon": 17.07328,
    "new_lat": 52.265097,
    "new_lon": 17.074055,
    "dist_m": 57,
    "query": "ul. Truskawkowa, Kórnik, Polska",
    "formatted": "Truskawkowa, 62-035, Polska",
    "addr": {
      "street": "ul. Truskawkowa",
      "osiedle": null,
      "city": "Kórnik",
      "district": null,
      "confidence": "high"
    },
    "geo_city": "Powiat poznański",
    "geo_district": null,
    "corrected": false
  },
  "66493708": {
    "skipped": "low_confidence",
    "addr": {
      "street": null,
      "osiedle": null,
      "city": "Kostrzyn",
      "district": null,
      "confidence": "high"
    }
  },
  "66936450": {
    "orig_lat": 52.5099,
    "orig_lon": 16.75416,
    "new_lat": 52.505428,
    "new_lon": 16.758725,
    "dist_m": 585,
    "query": "ul. Golęcińska, Rokietnica, Polska",
    "formatted": "Golęcińska, 62-090 Rokietnica, Polska",
    "addr": {
      "street": "ul. Golęcińska",
      "osiedle": null,
      "city": "Rokietnica",
      "district": null,
      "confidence": "high"
    },
    "geo_city": "Rokietnica",
    "geo_district": null,
    "corrected": true
  },
  "68196479": {
    "orig_lat": 52.22798,
    "orig_lon": 16.82342,
    "new_lat": 52.230644,
    "new_lon": 16.817851,
    "dist_m": 481,
    "query": "ul. Lipowa, Krosinek, Polska",
    "formatted": "Lipowa, 62-050, Polska",
    "addr": {
      "street": "ul. Lipowa",
      "osiedle": null,
      "city": "Krosinek",
      "district": null,
      "confidence": "high"
    },
    "geo_city": "Powiat poznański",
    "geo_district": null,
    "corrected": true
  },
  "68196478": {
    "orig_lat": 52.22798,
    "orig_lon": 16.82342,
    "new_lat": 52.230644,
    "new_lon": 16.817851,
    "dist_m": 481,
    "query": "ul. Lipowa, Krosinek, Polska",
    "formatted": "Lipowa, 62-050, Polska",
    "addr": {
      "street": "ul. Lipowa",
      "osiedle": null,
      "city": "Krosinek",
      "district": null,
      "confidence": "high"
    },
    "geo_city": "Powiat poznański",
    "geo_district": null,
    "corrected": true
  },
  "68196477": {
    "orig_lat": 52.22798,
    "orig_lon": 16.82342,
    "new_lat": 52.230644,
    "new_lon": 16.817851,
    "dist_m": 481,
    "query": "ul. Lipowa, Krosinek, Polska",
    "formatted": "Lipowa, 62-050, Polska",
    "addr": {
      "street": "ul. Lipowa",
      "osiedle": null,
      "city": "Krosinek",
      "district": null,
      "confidence": "high"
    },
    "geo_city": "Powiat poznański",
    "geo_district": null,
    "corrected": true
  },
  "68196295": {
    "skipped": "low_confidence",
    "addr": {
      "street": null,
      "osiedle": null,
      "city": "Dopiewiec",
      "district": null,
      "confidence": "high"
    }
  },
  "68195765": {
    "skipped": "low_confidence",
    "addr": {
      "street": null,
      "osiedle": null,
      "city": "Kamionki",
      "district": null,
      "confidence": "high"
    }
  },
  "68195753": {
    "skipped": "low_confidence",
    "addr": {
      "street": null,
      "osiedle": null,
      "city": "Siekierki Wielkie",
      "district": null,
      "confidence": "high"
    }
  },
  "68187448": {
    "orig_lat": 52.39038,
    "orig_lon": 17.1638,
    "new_lat": 52.378236,
    "new_lon": 17.166407,
    "dist_m": 1362,
    "query": "Siekierki Wielkie, Poznań, Polska",
    "formatted": "62-025 Siekierki Wielkie, Polska",
    "addr": {
      "street": null,
      "osiedle": "Siekierki Wielkie",
      "city": null,
      "district": null,
      "confidence": "medium"
    },
    "geo_city": "Siekierki Wielkie",
    "geo_district": null,
    "corrected": true
  },
  "66468211": {
    "orig_lat": 52.28176,
    "orig_lon": 16.61772,
    "new_lat": 52.295295,
    "new_lon": 16.626892,
    "dist_m": 1629,
    "query": "ul. Truskawkowa, Sapowice, Polska",
    "formatted": "Truskawkowa, 62-060 Sapowice, Polska",
    "addr": {
      "street": "ul. Truskawkowa",
      "osiedle": "Osiedle Nad Jeziorem",
      "city": "Sapowice",
      "district": null,
      "confidence": "high"
    },
    "geo_city": "Sapowice",
    "geo_district": null,
    "corrected": true
  },
  "68156144": {
    "orig_lat": 52.41024,
    "orig_lon": 17.07804,
    "new_lat": 52.417004,
    "new_lon": 17.116566,
    "dist_m": 2719,
    "query": "ul. Szkolna, Łowęcin, Polska",
    "formatted": "Szkolna, 62-020 Łowęcin, Polska",
    "addr": {
      "street": "ul. Szkolna",
      "osiedle": null,
      "city": "Łowęcin",
      "district": null,
      "confidence": "high"
    },
    "geo_city": "Łowęcin",
    "geo_district": null,
    "corrected": true
  },
  "67977108": {
    "skipped": "low_confidence",
    "addr": {
      "street": null,
      "osiedle": null,
      "city": "Daszewice",
      "district": null,
      "confidence": "high"
    }
  },
  "66035140": {
    "orig_lat": 52.24811,
    "orig_lon": 17.08378,
    "new_lat": 52.265097,
    "new_lon": 17.074055,
    "dist_m": 2001,
    "query": "ul. Truskawkowa, Kórnik, Polska",
    "formatted": "Truskawkowa, 62-035, Polska",
    "addr": {
      "street": "ul. Truskawkowa",
      "osiedle": null,
      "city": "Kórnik",
      "district": null,
      "confidence": "high"
    },
    "geo_city": "Powiat poznański",
    "geo_district": null,
    "corrected": true
  },
  "66035235": {
    "orig_lat": 52.27046,
    "orig_lon": 17.06824,
    "new_lat": 52.265097,
    "new_lon": 17.074055,
    "dist_m": 716,
    "query": "ul. Truskawkowa, Kórnik, Polska",
    "formatted": "Truskawkowa, 62-035, Polska",
    "addr": {
      "street": "ul. Truskawkowa",
      "osiedle": null,
      "city": "Kórnik",
      "district": null,
      "confidence": "high"
    },
    "geo_city": "Powiat poznański",
    "geo_district": null,
    "corrected": true
  },
  "68139875": {
    "skipped": "low_confidence",
    "addr": {
      "street": null,
      "osiedle": null,
      "city": "Kamionki",
      "district": null,
      "confidence": "high"
    }
  },
  "67673500": {
    "orig_lat": 52.36743,
    "orig_lon": 16.70528,
    "new_lat": 52.370113,
    "new_lon": 16.703121,
    "dist_m": 332,
    "query": "ul. Wierzbowej, Dopiewiec, Polska",
    "formatted": "Wierzbowa, 62-070 Dopiewiec, Polska",
    "addr": {
      "street": "ul. Wierzbowej",
      "osiedle": null,
      "city": "Dopiewiec",
      "district": null,
      "confidence": "high"
    },
    "geo_city": "Dopiewiec",
    "geo_district": null,
    "corrected": true
  },
  "66443419": {
    "orig_lat": 52.50568,
    "orig_lon": 16.75804,
    "new_lat": 52.505428,
    "new_lon": 16.758725,
    "dist_m": 54,
    "query": "ul. Golęcińska, Rokietnica, Polska",
    "formatted": "Golęcińska, 62-090 Rokietnica, Polska",
    "addr": {
      "street": "ul. Golęcińska",
      "osiedle": null,
      "city": "Rokietnica",
      "district": null,
      "confidence": "high"
    },
    "geo_city": "Rokietnica",
    "geo_district": null,
    "corrected": false
  },
  "67718448": {
    "orig_lat": 52.40229,
    "orig_lon": 17.213,
    "new_lat": 52.40383,
    "new_lon": 17.211475,
    "dist_m": 200,
    "query": "ul. Rolna, Kostrzyn, Polska",
    "formatted": "Rolna, 62-025 Kostrzyn, Polska",
    "addr": {
      "street": "ul. Rolna",
      "osiedle": null,
      "city": "Kostrzyn",
      "district": null,
      "confidence": "high"
    },
    "geo_city": "Kostrzyn",
    "geo_district": null,
    "corrected": true
  },
  "67419942": {
    "skipped": "low_confidence",
    "addr": {
      "street": null,
      "osiedle": null,
      "city": "Koninko",
      "district": null,
      "confidence": "medium"
    }
  },
  "66945484": {
    "orig_lat": 52.37452,
    "orig_lon": 17.15866,
    "new_lat": 52.373892,
    "new_lon": 17.157495,
    "dist_m": 106,
    "query": "ul. Tulecka, Siekierki Wielkie, Polska",
    "formatted": "Tulecka, 62-025, Polska",
    "addr": {
      "street": "ul. Tulecka",
      "osiedle": null,
      "city": "Siekierki Wielkie",
      "district": null,
      "confidence": "high"
    },
    "geo_city": "Powiat poznański",
    "geo_district": null,
    "corrected": false
  },
  "66484265": {
    "orig_lat": 52.44947,
    "orig_lon": 16.67143,
    "new_lat": 52.483069,
    "new_lon": 16.65696,
    "dist_m": 3862,
    "query": "ul. Ustronna, Góra, Polska",
    "formatted": "Ustronna, 62-080 Góra, Polska",
    "addr": {
      "street": "ul. Ustronna",
      "osiedle": "Osiedle Góra",
      "city": "Góra",
      "district": null,
      "confidence": "high"
    },
    "geo_city": "Góra",
    "geo_district": null,
    "corrected": true
  },
  "65085707": {
    "orig_lat": 52.37452,
    "orig_lon": 17.15866,
    "new_lat": 52.373892,
    "new_lon": 17.157495,
    "dist_m": 106,
    "query": "ul. Tulecka, Siekierki Wielkie, Polska",
    "formatted": "Tulecka, 62-025, Polska",
    "addr": {
      "street": "ul. Tulecka",
      "osiedle": null,
      "city": "Siekierki Wielkie",
      "district": null,
      "confidence": "high"
    },
    "geo_city": "Powiat poznański",
    "geo_district": null,
    "corrected": false
  },
  "67835307": {
    "orig_lat": 52.39116,
    "orig_lon": 16.8465,
    "new_lat": 52.392626,
    "new_lon": 16.846137,
    "dist_m": 165,
    "query": "ul. Jeleniogórska, Poznań, Polska",
    "formatted": "Jeleniogórska, Poznań, Polska",
    "addr": {
      "street": "ul. Jeleniogórska",
      "osiedle": null,
      "city": "Poznań",
      "district": null,
      "confidence": "high"
    },
    "geo_city": "Poznań",
    "geo_district": null,
    "corrected": false
  },
  "67962737": {
    "orig_lat": 52.24321,
    "orig_lon": 16.85196,
    "new_lat": 52.215263,
    "new_lon": 16.800995,
    "dist_m": 4659,
    "query": "ul. Lawendowa, Borkowice, Polska",
    "formatted": "Lawendowa, Polska",
    "addr": {
      "street": "ul. Lawendowa",
      "osiedle": null,
      "city": "Borkowice",
      "district": null,
      "confidence": "high"
    },
    "geo_city": "Powiat poznański",
    "geo_district": null,
    "corrected": true
  },
  "67731312": {
    "orig_lat": 52.46202,
    "orig_lon": 16.89833,
    "new_lat": 52.461614,
    "new_lon": 16.898023,
    "dist_m": 50,
    "query": "Ul. Teofila Mateckiego, Poznań, Polska",
    "formatted": "Teofila Mateckiego, Poznań, Polska",
    "addr": {
      "street": "Ul. Teofila Mateckiego",
      "osiedle": null,
      "city": "Poznań",
      "district": null,
      "confidence": "high"
    },
    "geo_city": "Poznań",
    "geo_district": null,
    "corrected": false
  },
  "68158283": {
    "skipped": "low_confidence",
    "addr": {
      "street": null,
      "osiedle": null,
      "city": "Poznań",
      "district": null,
      "confidence": "medium"
    }
  },
  "67673947": {
    "orig_lat": 52.3706,
    "orig_lon": 16.70265,
    "new_lat": 52.370113,
    "new_lon": 16.703121,
    "dist_m": 63,
    "query": "ul. Wierzbowej, Dopiewiec, Polska",
    "formatted": "Wierzbowa, 62-070 Dopiewiec, Polska",
    "addr": {
      "street": "ul. Wierzbowej",
      "osiedle": null,
      "city": "Dopiewiec",
      "district": null,
      "confidence": "high"
    },
    "geo_city": "Dopiewiec",
    "geo_district": null,
    "corrected": false
  },
  "68141745": {
    "skipped": "low_confidence",
    "addr": {
      "street": null,
      "osiedle": null,
      "city": "Rokietnica",
      "district": null,
      "confidence": "high"
    }
  },
  "66477818": {
    "orig_lat": 52.38372,
    "orig_lon": 16.83917,
    "new_lat": 52.38226,
    "new_lon": 16.843856,
    "dist_m": 357,
    "query": "ul. Wieruszowska, Poznań, Polska",
    "formatted": "Wieruszowska, Poznań, Polska",
    "addr": {
      "street": "ul. Wieruszowska",
      "osiedle": "Wieruszowska 2",
      "city": "Poznań",
      "district": "Junikowo",
      "confidence": "high"
    },
    "geo_city": "Poznań",
    "geo_district": null,
    "corrected": true
  },
  "96647781800067": {
    "orig_lat": 52.38372,
    "orig_lon": 16.83917,
    "new_lat": 52.38226,
    "new_lon": 16.843856,
    "dist_m": 357,
    "query": "ul. Wieruszowska, Poznań, Polska",
    "formatted": "Wieruszowska, Poznań, Polska",
    "addr": {
      "street": "ul. Wieruszowska",
      "osiedle": "Wieruszowska 2",
      "city": "Poznań",
      "district": "Junikowo",
      "confidence": "high"
    },
    "geo_city": "Poznań",
    "geo_district": null,
    "corrected": true
  },
  "68002952": {
    "orig_lat": 52.46281,
    "orig_lon": 16.8983,
    "new_lat": 52.462014,
    "new_lon": 16.898008,
    "dist_m": 91,
    "query": "ul. Mateckiego 4D, Poznań, Polska",
    "formatted": "Teofila Mateckiego 4D, 60-689 Poznań, Polska",
    "addr": {
      "street": "ul. Mateckiego 4D",
      "osiedle": "Osiedle Mateckiego 4ALL",
      "city": "Poznań",
      "district": "Piątkowo",
      "confidence": "high"
    },
    "geo_city": "Poznań",
    "geo_district": null,
    "corrected": false
  },
  "68019921": {
    "orig_lat": 52.3558,
    "orig_lon": 16.88343,
    "new_lat": 52.35681,
    "new_lon": 16.879864,
    "dist_m": 267,
    "query": "Ul. Świerczewska, Poznań, Polska",
    "formatted": "Świerczewska, 61-001 Poznań, Polska",
    "addr": {
      "street": "Ul. Świerczewska",
      "osiedle": null,
      "city": "Poznań",
      "district": null,
      "confidence": "high"
    },
    "geo_city": "Poznań",
    "geo_district": null,
    "corrected": true
  },
  "64454570": {
    "skipped": "low_confidence",
    "addr": {
      "street": null,
      "osiedle": null,
      "city": "Poznań",
      "district": null,
      "confidence": "medium"
    }
  },
  "67926456": {
    "orig_lat": 52.35622,
    "orig_lon": 16.88329,
    "new_lat": 52.35681,
    "new_lon": 16.879864,
    "dist_m": 242,
    "query": "Ul. Świerczewska, Poznań, Polska",
    "formatted": "Świerczewska, 61-001 Poznań, Polska",
    "addr": {
      "street": "Ul. Świerczewska",
      "osiedle": null,
      "city": "Poznań",
      "district": null,
      "confidence": "high"
    },
    "geo_city": "Poznań",
    "geo_district": null,
    "corrected": true
  },
  "67784689": {
    "orig_lat": 52.35294,
    "orig_lon": 17.02679,
    "new_lat": 52.345319,
    "new_lon": 17.021437,
    "dist_m": 922,
    "query": "ul. Przyjaznej, Poznań, Polska",
    "formatted": "Przyjazna, 61-324 Poznań, Polska",
    "addr": {
      "street": "ul. Przyjaznej",
      "osiedle": null,
      "city": "Poznań",
      "district": "Szczepankowo/Spławie",
      "confidence": "high"
    },
    "geo_city": "Poznań",
    "geo_district": null,
    "corrected": true
  },
  "67111618": {
    "orig_lat": 52.36452,
    "orig_lon": 17.12451,
    "new_lat": 52.353391,
    "new_lon": 17.109175,
    "dist_m": 1617,
    "query": "ul. Śnieżna, Gowarzewo, Polska",
    "formatted": "Śnieżna, 63-004, Polska",
    "addr": {
      "street": "ul. Śnieżna",
      "osiedle": "Gowarzewo",
      "city": "Gowarzewo",
      "district": null,
      "confidence": "high"
    },
    "geo_city": "Powiat poznański",
    "geo_district": null,
    "corrected": true
  },
  "65250178": {
    "orig_lat": 52.23241,
    "orig_lon": 16.81537,
    "new_lat": 52.232409,
    "new_lon": 16.814954,
    "dist_m": 28,
    "query": "ul. Czeremchowej, Krosinek, Polska",
    "formatted": "Czeremchowa, 62-050, Polska",
    "addr": {
      "street": "ul. Czeremchowej",
      "osiedle": null,
      "city": "Krosinek",
      "district": null,
      "confidence": "high"
    },
    "geo_city": "Powiat poznański",
    "geo_district": null,
    "corrected": false
  },
  "68182174": {
    "orig_lat": 52.34617,
    "orig_lon": 16.87738,
    "new_lat": 52.346166,
    "new_lon": 16.877376,
    "dist_m": 1,
    "query": "Lokum Luboń, Luboń, Polska",
    "formatted": "Luboń, Polska",
    "addr": {
      "street": null,
      "osiedle": "Lokum Luboń",
      "city": "Luboń",
      "district": null,
      "confidence": "high"
    },
    "geo_city": "Luboń",
    "geo_district": null,
    "corrected": false
  },