{
  "67232747": {
    "orig_lat": 52.39885,
    "orig_lon": 16.91957,
    "new_lat": 52.399107,
    "new_lon": 16.919155,
    "dist_m": 40,
    "query": "Vilda Arte, Poznań, Polska",
    "formatted": "Vilda Arte, Wilda, Poznań, województwo wielkopolskie, Polska",
    "addr": {
      "street": null,
      "number": null,
      "osiedle": "Vilda Arte",
      "city": "Poznań",
      "district": "Wilda",
      "confidence": "high"
    },
    "geo_city": "Poznań",
    "geo_district": "Wilda",
    "corrected": false
  },
  "67232737": {
    "orig_lat": 52.39885,
    "orig_lon": 16.91957,
    "new_lat": 52.399107,
    "new_lon": 16.919155,
    "dist_m": 40,
    "query": "Vilda Arte, Poznań, Polska",
    "formatted": "Vilda Arte, Wilda, Poznań, województwo wielkopolskie, Polska",
    "addr": {
      "street": null,
      "number": null,
      "osiedle": "Vilda Arte",
      "city": "Poznań",
      "district": "Wilda",
      "confidence": "high"
    },
    "geo_city": "Poznań",
    "geo_district": "Wilda",
    "corrected": false
  },
  "67232744": {
    "orig_lat": 52.39885,
    "orig_lon": 16.91957,
    "new_lat": 52.399107,
    "new_lon": 16.919155,
    "dist_m": 40,
    "query": "Vilda Arte, Poznań, Polska",
    "formatted": "Vilda Arte, Wilda, Poznań, województwo wielkopolskie, Polska",
    "addr": {
      "street": null,
      "number": null,
      "osiedle": "Vilda Arte",
      "city": "Poznań",
      "district": "Wilda",
      "confidence": "high"
    },
    "geo_city": "Poznań",
    "geo_district": "Wilda",
    "corrected": false
  },
  "68174861": {
    "skipped": "low_confidence",
    "addr": {
      "street": null,
      "number": null,
      "osiedle": null,
      "city": "Kamionki",
      "district": null,
      "confidence": "high"
    }
  },
  "67599144": {
    "skipped": "low_confidence",
    "addr": {
      "street": null,
      "number": null,
      "osiedle": null,
      "city": "Pobiedziska",
      "district": null,
      "confidence": "high"
    }
  },
  "67641051": {
    "skipped": "low_confidence",
    "addr": {
      "street": null,
      "number": null,
      "osiedle": null,
      "city": "Pobiedziska",
      "district": null,
      "confidence": "high"
    }
  },
  "68048191": {
    "skipped": "low_confidence",
    "addr": {
      "street": null,
      "number": null,
      "osiedle": null,
      "city": "wioska",
      "district": null,
      "confidence": "high"
    }
  },
  "67298951": {
    "skipped": "low_confidence",
    "addr": {
      "street": null,
      "number": null,
      "osiedle": null,
      "city": "Rondo Rataje",
      "district": null,
      "confidence": "medium"
    }
  },
  "96729895100067": {
    "skipped": "low_confidence",
    "addr": {
      "street": null,
      "number": null,
      "osiedle": null,
      "city": "null",
      "district": null,
      "confidence": "low"
    }
  },
  "67859055": {
    "skipped": "low_confidence",
    "addr": {
      "street": null,
      "number": null,
      "osiedle": null,
      "city": "poza miastem",
      "district": null,
      "confidence": "high"
    }
  },
  "67955931": {
    "skipped": "low_confidence",
    "addr": {
      "street": null,
      "number": null,
      "osiedle": null,
      "city": "Gowarzewo",
      "district": null,
      "confidence": "high"
    }
  },
  "68195763": {
    "skipped": "low_confidence",
    "addr": {
      "street": null,
      "number": null,
      "osiedle": null,
      "city": "Dachowa",
      "district": null,
      "confidence": "high"
    }
  },
  "67730459": {
    "orig_lat": 52.37571,
    "orig_lon": 17.10255,
    "new_lat": 52.378827,
    "new_lon": 17.093522,
    "dist_m": 704,
    "query": "PARK Kruszewnia, Kruszewnia, Polska",
    "formatted": "Park Kruszewnia, Kruszewnia, gmina Swarzędz, powiat poznański, województwo wielkopolskie, Polska",
    "addr": {
      "street": null,
      "number": null,
      "osiedle": "PARK Kruszewnia",
      "city": "Kruszewnia",
      "district": "Swarzędz",
      "confidence": "high"
    },
    "geo_city": "Kruszewnia",
    "geo_district": null,
    "corrected": true
  },
  "66615198": {
    "skipped": "low_confidence",
    "addr": {
      "street": null,
      "number": "247/10",
      "osiedle": null,
      "city": "Ceradz Dolny",
      "district": null,
      "confidence": "high"
    }
  },
  "66615357": {
    "skipped": "low_confidence",
    "addr": {
      "street": null,
      "number": null,
      "osiedle": null,
      "city": "Ceradz Dolny",
      "district": null,
      "confidence": "high"
    }
  },
  "64874220": {
    "skipped": "low_confidence",
    "addr": {
      "street": null,
      "number": null,
      "osiedle": null,
      "city": null,
      "district": null,
      "confidence": "low"
    }
  },
  "68179709": {
    "skipped": "low_confidence",
    "addr": {
      "street": null,
      "number": null,
      "osiedle": null,
      "city": "Daszewice",
      "district": null,
      "confidence": "high"
    }
  },
  "68154472": {
    "skipped": "low_confidence",
    "addr": {
      "street": null,
      "number": null,
      "osiedle": null,
      "city": "Pamiątkowo",
      "district": null,
      "confidence": "high"
    }
  },
  "67641005": {
    "skipped": "low_confidence",
    "addr": {
      "street": null,
      "number": null,
      "osiedle": null,
      "city": "Rabowice",
      "district": null,
      "confidence": "high"
    }
  },
  "67355049": {
    "skipped": "low_confidence",
    "addr": {
      "street": null,
      "number": null,
      "osiedle": null,
      "city": "Trzek",
      "district": null,
      "confidence": "high"
    }
  },
  "68224844": {
    "skipped": "low_confidence",
    "addr": {
      "street": null,
      "number": null,
      "osiedle": null,
      "city": "Karolewo",
      "district": null,
      "confidence": "high"
    }
  },
  "68195754": {
    "skipped": "low_confidence",
    "addr": {
      "street": null,
      "number": null,
      "osiedle": null,
      "city": "Siekierki Wielkie",
      "district": null,
      "confidence": "high"
    }
  },
  "68188877": {
    "skipped": "low_confidence",
    "addr": {
      "street": null,
      "number": null,
      "osiedle": null,
      "city": "Biedrusko",
      "district": null,
      "confidence": "high"
    }
  },
  "68187443": {
    "skipped": "low_confidence",
    "addr": {
      "street": null,
      "number": null,
      "osiedle": null,
      "city": "Siekierki Wielkie",
      "district": null,
      "confidence": "high"
    }
  },
  "66189683": {
    "orig_lat": 52.25879,
    "orig_lon": 16.61572,
    "new_lat": 52.24836,
    "new_lon": 16.615293,
    "dist_m": 1160,
    "query": "Pszenna, Strykowo, Polska",
    "formatted": "Strykowo, gmina Stęszew, powiat poznański, województwo wielkopolskie, 62-062, Polska",
    "addr": {
      "street": "Pszenna",
      "number": null,
      "osiedle": "Osiedle Willowe",
      "city": "Strykowo",
      "district": "gm. Stęszew",
      "confidence": "high"
    },
    "geo_city": "Strykowo",
    "geo_district": null,
    "corrected": true
  },
  "68196073": {
    "skipped": "low_confidence",
    "addr": {
      "street": null,
      "number": null,
      "osiedle": null,
      "city": "Szewce - Michalin",
      "district": null,
      "confidence": "high"
    }
  },
  "67048471": {
    "skipped": "low_confidence",
    "addr": {
      "street": null,
      "number": null,
      "osiedle": null,
      "city": "Dachowa",
      "district": null,
      "confidence": "high"
    }
  },
  "68061345": {
    "orig_lat": 52.61476,
    "orig_lon": 17.09083,
    "new_lat": 52.613708,
    "new_lon": 17.095353,
    "dist_m": 327,
    "query": "Łopuchowo, Łopuchowo, Polska",
    "formatted": "Łopuchowo, 196, Łopuchowo, gmina Murowana Goślina, powiat poznański, województwo wielkopolskie, 62-093, Polska",
    "addr": {
      "street": null,
      "number": "12/166a",
      "osiedle": "Łopuchowo",
      "city": "Łopuchowo",
      "district": null,
      "confidence": "high"
    },
    "geo_city": "Łopuchowo",
    "geo_district": null,
    "corrected": true
  },
  "68203851": {
    "skipped": "low_confidence",
    "addr": {
      "street": null,
      "number": null,
      "osiedle": null,
      "city": "Kórnik",
      "district": null,
      "confidence": "high"
    }
  },
  "67809480": {
    "skipped": "low_confidence",
    "addr": {
      "street": null,
      "number": null,
      "osiedle": null,
      "city": "Czerlejno",
      "district": null,
      "confidence": "high"
    }
  },
  "68196292": {
    "skipped": "low_confidence",
    "addr": {
      "street": null,
      "number": null,
      "osiedle": null,
      "city": "Dopiewo",
      "district": null,
      "confidence": "high"
    }
  },
  "68174218": {
    "skipped": "low_confidence",
    "addr": {
      "street": null,
      "number": null,
      "osiedle": null,
      "city": "Kórnik",
      "district": null,
      "confidence": "high"
    }
  },
  "68127813": {
    "orig_lat": 52.3672,
    "orig_lon": 16.66729,
    "new_lat": 52.365241,
    "new_lon": 16.669909,
    "dist_m": 281,
    "query": "Więckowska, Dopiewo, Polska",
    "formatted": "Więckowska, Dopiewo, gmina Dopiewo, powiat poznański, województwo wielkopolskie, 62-070, Polska",
    "addr": {
      "street": "Więckowska",
      "number": null,
      "osiedle": null,
      "city": "Dopiewo",
      "district": null,
      "confidence": "high"
    },
    "geo_city": "Dopiewo",
    "geo_district": null,
    "corrected": true
  },
  "68091494": {
    "skipped": "low_confidence",
    "addr": {
      "street": null,
      "number": null,
      "osiedle": null,
      "city": "Kórnik",
      "district": null,
      "confidence": "high"
    }
  },
  "67962716": {
    "skipped": "low_confidence",
    "addr": {
      "street": null,
      "number": null,
      "osiedle": null,
      "city": "Kórnik",
      "district": null,
      "confidence": "high"
    }
  },
  "65663662": {
    "orig_lat": 52.3204,
    "orig_lon": 16.92448,
    "new_lat": 52.320386,
    "new_lon": 16.924468,
    "dist_m": 2,
    "query": "Zaciszna 3, Czapury, Polska",
    "formatted": "3, Zaciszna, Czapury, gmina Mosina, powiat poznański, województwo wielkopolskie, 61-160, Polska",
    "addr": {
      "street": "Zaciszna",
      "number": "3",
      "osiedle": "Osiedle Zacisze",
      "city": "Czapury",
      "district": null,
      "confidence": "high"
    },
    "geo_city": "Czapury",
    "geo_district": null,
    "corrected": false
  },
  "66702640": {
    "skipped": "low_confidence",
    "addr": {
      "street": null,
      "number": null,
      "osiedle": null,
      "city": "Dopiewo",
      "district": null,
      "confidence": "high"
    }
  },
  "68196070": {
    "skipped": "low_confidence",
    "addr": {
      "street": null,
      "number": null,
      "osiedle": null,
      "city": "Mosina",
      "district": null,
      "confidence": "high"
    }
  },
  "67973748": {
    "skipped": "low_confidence",
    "addr": {
      "street": null,
      "number": null,
      "osiedle": null,
      "city": "Poznań",
      "district": null,
      "confidence": "high"
    }
  },
  "68095417": {
    "orig_lat": 52.45437,
    "orig_lon": 17.38709,
    "new_lat": 52.44774,
    "new_lon": 17.405002,
    "dist_m": 1420,
    "query": "osiedle Akacjowe, Wierzyce, Polska",
    "formatted": "Osiedle Akacjowe, Przyborówko, Wierzyce, gmina Łubowo, powiat gnieźnieński, województwo wielkopolskie, 62-262, Polska",
    "addr": {
      "street": null,
      "number": null,
      "osiedle": "osiedle Akacjowe",
      "city": "Wierzyce",
      "district": null,
      "confidence": "high"
    },
    "geo_city": "Wierzyce",
    "geo_district": "Osiedle Akacjowe",
    "corrected": false,
    "reverted": true
  },
  "67248592": {
    "skipped": "low_confidence",
    "addr": {
      "street": null,
      "number": null,
      "osiedle": null,
      "city": "Konarzewo",
      "district": null,
      "confidence": "high"
    }
  },
  "65002682": {
    "skipped": "low_confidence",
    "addr": {
      "street": null,
      "number": null,
      "osiedle": null,
      "city": "Puszcza Zielonka",
      "district": null,
      "confidence": "high"
    }
  },
  "64966722": {
    "skipped": "low_confidence",
    "addr": {
      "street": null,
      "number": null,
      "osiedle": null,
      "city": "Puszcza Zielonka",
      "district": null,
      "confidence": "high"
    }
  },
  "67297337": {
    "skipped": "low_confidence",
    "addr": {
      "street": null,
      "number": null,
      "osiedle": null,
      "city": "Czmoń",
      "district": null,
      "confidence": "high"
    }
  },
  "68195757": {
    "skipped": "low_confidence",
    "addr": {
      "street": null,
      "number": null,
      "osiedle": null,
      "city": "Dachowa",
      "district": null,
      "confidence": "high"
    }
  },
  "68144755": {
    "skipped": "low_confidence",
    "addr": {
      "street": null,
      "number": null,
      "osiedle": null,
      "city": "Szczytniki",
      "district": null,
      "confidence": "high"
    }
  },
  "64365612": {
    "skipped": "low_confidence",
    "addr": {
      "street": null,
      "number": null,
      "osiedle": null,
      "city": null,
      "district": null,
      "confidence": "low"
    }
  },
  "68143820": {
    "skipped": "low_confidence",
    "addr": {
      "street": null,
      "number": null,
      "osiedle": null,
      "city": "wioska",
      "district": null,
      "confidence": "high"
    }
  },
  "68058562": {
    "skipped": "low_confidence",
    "addr": {
      "street": null,
      "number": null,
      "osiedle": null,
      "city": "Kórnik",
      "district": null,
      "confidence": "high"
    }
  },
  "67875979": {
    "skipped": "low_confidence",
    "addr": {
      "street": null,
      "number": null,
      "osiedle": null,
      "city": "Gowarzewo",
      "district": null,
      "confidence": "high"
    }
  },
  "67730513": {
    "orig_lat": 52.37571,
    "orig_lon": 17.10255,
    "new_lat": 52.378827,
    "new_lon": 17.093522,
    "dist_m": 704,
    "query": "PARK Kruszewnia, Kruszewnia, Polska",
    "formatted": "Park Kruszewnia, Kruszewnia, gmina Swarzędz, powiat poznański, województwo wielkopolskie, Polska",
    "addr": {
      "street": null,
      "number": null,
      "osiedle": "PARK Kruszewnia",
      "city": "Kruszewnia",
      "district": "Swarzędz",
      "confidence": "high"
    },
    "geo_city": "Kruszewnia",
    "geo_district": null,
    "corrected": true
  },
  "68036148": {
    "orig_lat": 52.44804,
    "orig_lon": 16.95869,
    "new_lat": 52.448546,
    "new_lon": 16.957817,
    "dist_m": 82,
    "query": "Osiedle WITAJ, Poznań, Polska",
    "formatted": "Osiedle Witaj, Naramowice, Poznań, województwo wielkopolskie, Polska",
    "addr": {
      "street": null,
      "number": null,
      "osiedle": "Osiedle WITAJ",
      "city": "Poznań",
      "district": "Naramowice",
      "confidence": "high"
    },
    "geo_city": "Poznań",
    "geo_district": "Naramowice",
    "corrected": false
  },
  "68100093": {
    "skipped": "low_confidence",
    "addr": {
      "street": null,
      "number": null,
      "osiedle": null,
      "city": "null",
      "district": null,
      "confidence": "low"
    }
  },
  "68196296": {
    "skipped": "low_confidence",
    "addr": {
      "street": null,
      "number": null,
      "osiedle": null,
      "city": "X",
      "district": null,
      "confidence": "high"
    }
  },
  "68183143": {
    "skipped": "low_confidence",
    "addr": {
      "street": null,
      "number": null,
      "osiedle": null,
      "city": "X",
      "district": null,
      "confidence": "high"
    }
  },
  "96818314300067": {
    "skipped": "low_confidence",
    "addr": {
      "street": null,
      "number": null,
      "osiedle": null,
      "city": "X",
      "district": null,
      "confidence": "high"
    }
  },
  "66478926": {
    "skipped": "low_confidence",
    "addr": {
      "street": null,
      "number": null,
      "osiedle": null,
      "city": "Poznań",
      "district": null,
      "confidence": "medium"
    }
  },
  "65671926": {
    "skipped": "low_confidence",
    "addr": {
      "street": null,
      "number": null,
      "osiedle": null,
      "city": "Poznań",
      "district": null,
      "confidence": "high"
    }
  },
  "68196291": {
    "skipped": "low_confidence",
    "addr": {
      "street": null,
      "number": null,
      "osiedle": null,
      "city": "Konarzewo",
      "district": null,
      "confidence": "high"
    }
  },
  "68035400": {
    "skipped": "low_confidence",
    "addr": {
      "street": null,
      "number": null,
      "osiedle": null,
      "city": "Poznań",
      "district": null,
      "confidence": "high"
    }
  },
  "68219246": {
    "skipped": "low_confidence",
    "addr": {
      "street": null,
      "number": null,
      "osiedle": null,
      "city": "Kostrzyn",
      "district": null,
      "confidence": "high"
    }
  },
  "65061339": {
    "skipped": "low_confidence",
    "addr": {
      "street": null,
      "number": null,
      "osiedle": null,
      "city": "pod Poznaniem",
      "district": null,
      "confidence": "high"
    }
  },
  "67725702": {
    "skipped": "low_confidence",
    "addr": {
      "street": null,
      "number": null,
      "osiedle": null,
      "city": "Siekierki Wielkie",
      "district": null,
      "confidence": "high"
    }
  },
  "67941071": {
    "skipped": "low_confidence",
    "addr": {
      "street": null,
      "number": null,
      "osiedle": null,
      "city": "Gortatów",
      "district": null,
      "confidence": "high"
    }
  },
  "65002716": {
    "skipped": "low_confidence",
    "addr": {
      "street": null,
      "number": null,
      "osiedle": null,
      "city": "Trzaskowo",
      "district": null,
      "confidence": "high"
    }
  },
  "65002723": {
    "skipped": "low_confidence",
    "addr": {
      "street": null,
      "number": null,
      "osiedle": null,
      "city": "Trzaskowo",
      "district": null,
      "confidence": "high"
    }
  },
  "64772614": {
    "skipped": "low_confidence",
    "addr": {
      "street": null,
      "number": null,
      "osiedle": null,
      "city": "Poznań",
      "district": null,
      "confidence": "medium"
    }
  },
  "67058659": {
    "skipped": "low_confidence",
    "addr": {
      "street": null,
      "number": null,
      "osiedle": null,
      "city": "Gwiazdowo",
      "district": null,
      "confidence": "high"
    }
  },
  "67790909": {
    "orig_lat": 52.56713,
    "orig_lon": 16.99629,
    "new_lat": 52.566978,
    "new_lon": 16.99676,
    "dist_m": 36,
    "query": "Osiedle Zielone Wzgórza, Murowana Goślina, Polska",
    "formatted": "Zielone Wzgórza, Murowana Goślina, gmina Murowana Goślina, powiat poznański, województwo wielkopolskie, 62-095, Polska",
    "addr": {
      "street": null,
      "number": null,
      "osiedle": "Osiedle Zielone Wzgórza",
      "city": "Murowana Goślina",
      "district": null,
      "confidence": "high"
    },
    "geo_city": "Murowana Goślina",
    "geo_district": "Zielone Wzgórza",
    "corrected": false
  },
  "65866314": {
    "orig_lat": 52.4076,
    "orig_lon": 17.07351,
    "new_lat": 52.378827,
    "new_lon": 17.093522,
    "dist_m": 3476,
    "query": "PARK Kruszewnia, Kruszewnia, Polska",
    "formatted": "Park Kruszewnia, Kruszewnia, gmina Swarzędz, powiat poznański, województwo wielkopolskie, Polska",
    "addr": {
      "street": null,
      "number": null,
      "osiedle": "PARK Kruszewnia",
      "city": "Kruszewnia",
      "district": null,
      "confidence": "high"
    },
    "geo_city": "Kruszewnia",
    "geo_district": null,
    "corrected": true
  },
  "67828355": {
    "skipped": "low_confidence",
    "addr": {
      "street": null,
      "number": null,
      "osiedle": null,
      "city": "Kruszewnia",
      "district": null,
      "confidence": "high"
    }
  },
  "68135558": {
    "orig_lat": 52.32058,
    "orig_lon": 16.92453,
    "new_lat": 52.32057,
    "new_lon": 16.924495,
    "dist_m": 3,
    "query": "Zaciszna 7, Czapury, Polska",
    "formatted": "7, Zaciszna, Czapury, gmina Mosina, powiat poznański, województwo wielkopolskie, 61-160, Polska",
    "addr": {
      "street": "Zaciszna",
      "number": "7",
      "osiedle": "Osiedle Zacisze",
      "city": "Czapury",
      "district": null,
      "confidence": "high"
    },
    "geo_city": "Czapury",
    "geo_district": null,
    "corrected": false
  },
  "65663618": {
    "orig_lat": 52.32054,
    "orig_lon": 16.92491,
    "new_lat": 52.320378,
    "new_lon": 16.924876,
    "dist_m": 18,
    "query": "Zaciszna 8, Czapury, Polska",
    "formatted": "8, Zaciszna, Czapury, gmina Mosina, powiat poznański, województwo wielkopolskie, 61-160, Polska",
    "addr": {
      "street": "Zaciszna",
      "number": "8",
      "osiedle": "Osiedle Zacisze",
      "city": "Czapury",
      "district": null,
      "confidence": "high"
    },
    "geo_city": "Czapury",
    "geo_district": null,
    "corrected": false
  },
  "68219430": {
    "skipped": "low_confidence",
    "addr": {
      "street": null,
      "number": null,
      "osiedle": null,
      "city": "Zimin",
      "district": null,
      "confidence": "high"
    }
  },
  "68195110": {
    "skipped": "low_confidence",
    "addr": {
      "street": null,
      "number": null,
      "osiedle": null,
      "city": "Witobel",
      "district": null,
      "confidence": "high"
    }
  },
  "68162742": {
    "skipped": "low_confidence",
    "addr": {
      "street": null,
      "number": null,
      "osiedle": null,
      "city": "Promno",
      "district": null,
      "confidence": "high"
    }
  },
  "66493708": {
    "skipped": "low_confidence",
    "addr": {
      "street": null,
      "number": null,
      "osiedle": null,
      "city": "Kostrzyn",
      "district": null,
      "confidence": "high"
    }
  },
  "68196295": {
    "skipped": "low_confidence",
    "addr": {
      "street": null,
      "number": null,
      "osiedle": null,
      "city": "Dopiewiec",
      "district": null,
      "confidence": "high"
    }
  },
  "68195765": {
    "skipped": "low_confidence",
    "addr": {
      "street": null,
      "number": null,
      "osiedle": null,
      "city": "Kamionki",
      "district": null,
      "confidence": "high"
    }
  },
  "68195753": {
    "skipped": "low_confidence",
    "addr": {
      "street": null,
      "number": null,
      "osiedle": null,
      "city": "Siekierki Wielkie",
      "district": null,
      "confidence": "high"
    }
  },
  "68187448": {
    "skipped": "low_confidence",
    "addr": {
      "street": null,
      "number": null,
      "osiedle": null,
      "city": "Siekierki Wielkie",
      "district": null,
      "confidence": "high"
    }
  },
  "67977108": {
    "skipped": "low_confidence",
    "addr": {
      "street": null,
      "number": null,
      "osiedle": null,
      "city": "Daszewice",
      "district": null,
      "confidence": "high"
    }
  },
  "68139875": {
    "skipped": "low_confidence",
    "addr": {
      "street": null,
      "number": null,
      "osiedle": null,
      "city": "Kamionki",
      "district": null,
      "confidence": "high"
    }
  },
  "66443419": {
    "orig_lat": 52.50568,
    "orig_lon": 16.75804,
    "new_lat": 52.508318,
    "new_lon": 16.755437,
    "dist_m": 342,
    "query": "Golęcińska, Rokietnica, Polska",
    "formatted": "Golęcińska, Rokietnica, gmina Rokietnica, powiat poznański, województwo wielkopolskie, 62-090, Polska",
    "addr": {
      "street": "Golęcińska",
      "number": null,
      "osiedle": null,
      "city": "Rokietnica",
      "district": null,
      "confidence": "high"
    },
    "geo_city": "Rokietnica",
    "geo_district": null,
    "corrected": true
  },
  "67419942": {
    "skipped": "low_confidence",
    "addr": {
      "street": null,
      "number": null,
      "osiedle": null,
      "city": "Koninko",
      "district": null,
      "confidence": "high"
    }
  },
  "68158283": {
    "skipped": "low_confidence",
    "addr": {
      "street": null,
      "number": null,
      "osiedle": null,
      "city": "около Познania",
      "district": null,
      "confidence": "high"
    }
  },
  "68141745": {
    "skipped": "low_confidence",
    "addr": {
      "street": null,
      "number": null,
      "osiedle": null,
      "city": "Rokietnica",
      "district": null,
      "confidence": "high"
    }
  },
  "96814174500067": {
    "skipped": "low_confidence",
    "addr": {
      "street": null,
      "number": null,
      "osiedle": null,
      "city": "Rokietnica",
      "district": null,
      "confidence": "high"
    }
  },
  "64454570": {
    "skipped": "low_confidence",
    "addr": {
      "street": null,
      "number": null,
      "osiedle": null,
      "city": "Poznań",
      "district": null,
      "confidence": "high"
    }
  },
  "67910568": {
    "skipped": "low_confidence",
    "addr": {
      "street": null,
      "number": null,
      "osiedle": null,
      "city": "miasto",
      "district": null,
      "confidence": "medium"
    }
  },
  "67941100": {
    "skipped": "low_confidence",
    "addr": {
      "street": null,
      "number": null,
      "osiedle": null,
      "city": "Gortatów",
      "district": null,
      "confidence": "high"
    }
  },
  "66106141": {
    "orig_lat": 52.4089,
    "orig_lon": 17.08117,
    "new_lat": 52.408421,
    "new_lon": 17.080772,
    "dist_m": 60,
    "query": "SVARAN, Swarzędz, Polska",
    "formatted": "Svaran - mieszkania, Swarzędz, gmina Swarzędz, powiat poznański, województwo wielkopolskie, Polska",
    "addr": {
      "street": null,
      "number": null,
      "osiedle": "SVARAN",
      "city": "Swarzędz",
      "district": null,
      "confidence": "high"
    },
    "geo_city": "Swarzędz",
    "geo_district": null,
    "corrected": false
  },
  "96610614100067": {
    "orig_lat": 52.4089,
    "orig_lon": 17.08117,
    "new_lat": 52.408421,
    "new_lon": 17.080772,
    "dist_m": 60,
    "query": "SVARAN, Swarzędz, Polska",
    "formatted": "Svaran - mieszkania, Swarzędz, gmina Swarzędz, powiat poznański, województwo wielkopolskie, Polska",
    "addr": {
      "street": null,
      "number": null,
      "osiedle": "SVARAN",
      "city": "Swarzędz",
      "district": null,
      "confidence": "high"
    },
    "geo_city": "Swarzędz",
    "geo_district": null,
    "corrected": false
  },
  "68212423": {
    "skipped": "low_confidence",
    "addr": {
      "street": null,
      "number": null,
      "osiedle": null,
      "city": "Słupia",
      "district": null,
      "confidence": "high"
    }
  },
  "67051891": {
    "skipped": "no_description"
  },
  "67457304": {
    "skipped": "low_confidence",
    "addr": {
      "street": null,
      "number": null,
      "osiedle": null,
      "city": "Rumianek",
      "district": null,
      "confidence": "high"
    }
  },
  "66610853": {
    "skipped": "low_confidence",
    "addr": {
      "street": null,
      "number": null,
      "osiedle": null,
      "city": "Rogierówko",
      "district": null,
      "confidence": "high"
    }
  },
  "68196294": {
    "skipped": "low_confidence",
    "addr": {
      "street": null,
      "number": null,
      "osiedle": null,
      "city": "Dopiewiec",
      "district": null,
      "confidence": "high"
    }
  },
  "68196289": {
    "skipped": "low_confidence",
    "addr": {
      "street": null,
      "number": null,
      "osiedle": null,
      "city": "Konarzewo",
      "district": null,
      "confidence": "high"
    }
  },
  "68195755": {
    "skipped": "low_confidence",
    "addr": {
      "street": null,
      "number": null,
      "osiedle": null,
      "city": "Dachowa",
      "district": null,
      "confidence": "high"
    }
  },
  "68141088": {
    "orig_lat": 52.34075,
    "orig_lon": 16.6988,
    "new_lat": 52.339479,
    "new_lon": 16.700757,
    "dist_m": 194,
    "query": "Dopiewska, Konarzewo, Polska",
    "formatted": "Dopiewska, Konarzewo, gmina Dopiewo, powiat poznański, województwo wielkopolskie, 62-070, Polska",
    "addr": {
      "street": "Dopiewska",
      "number": null,
      "osiedle": null,
      "city": "Konarzewo",
      "district": null,
      "confidence": "high"
    },
    "geo_city": "Konarzewo",
    "geo_district": null,
    "corrected": false
  },
  "68127815": {
    "orig_lat": 52.37378,
    "orig_lon": 16.68017,
    "new_lat": 52.373026,
    "new_lon": 16.678723,
    "dist_m": 129,
    "query": "Bajkowa, Dopiewiec, Polska",
    "formatted": "Bajkowa, Dopiewiec, gmina Dopiewo, powiat poznański, województwo wielkopolskie, 62-070, Polska",
    "addr": {
      "street": "Bajkowa",
      "number": null,
      "osiedle": null,
      "city": "Dopiewiec",
      "district": null,
      "confidence": "high"
    },
    "geo_city": "Dopiewiec",
    "geo_district": null,
    "corrected": false
  },
  "67793506": {
    "skipped": "low_confidence",
    "addr": {
      "street": null,
      "number": null,
      "osiedle": null,
      "city": "Dachowa",
      "district": null,
      "confidence": "high"
    }
  },
  "67562516": {
    "orig_lat": 52.30419,
    "orig_lon": 17.10051,
    "new_lat": 52.212451,
    "new_lon": 20.192937,
    "dist_m": 210710,
    "query": "Dachowa, Dachowa, Polska",
    "formatted": "Dachowa, gmina Sochaczew, powiat sochaczewski, województwo mazowieckie, 96-502, Polska",
    "addr": {
      "street": null,
      "number": null,
      "osiedle": "Dachowa",
      "city": "Dachowa",
      "district": "gm. Kórnik",
      "confidence": "high"
    },
    "geo_city": "Dachowa",
    "geo_district": null,
    "corrected": false,
    "reverted": true
  },
  "68013667": {
    "skipped": "low_confidence",
    "addr": {
      "street": null,
      "number": null,
      "osiedle": null,
      "city": "Poznań",
      "district": null,
      "confidence": "medium"
    }
  },
  "68212531": {
    "orig_lat": 52.29489,
    "orig_lon": 17.00743,
    "new_lat": 52.296071,
    "new_lon": 17.007659,
    "dist_m": 132,
    "query": "Choinkowa, Szczytniki, Polska",
    "formatted": "Choinkowa, Szczytniki, gmina Kórnik, powiat poznański, województwo wielkopolskie, 62-023, Polska",
    "addr": {
      "street": "Choinkowa",
      "number": null,
      "osiedle": null,
      "city": "Szczytniki",
      "district": "Kórnik",
      "confidence": "high"
    },
    "geo_city": "Szczytniki",
    "geo_district": null,
    "corrected": false
  },
  "65667592": {
    "skipped": "low_confidence",
    "addr": {
      "street": null,
      "number": null,
      "osiedle": null,
      "city": "Poznań",
      "district": null,
      "confidence": "high"
    }
  },
  "68196293": {
    "skipped": "low_confidence",
    "addr": {
      "street": null,
      "number": null,
      "osiedle": null,
      "city": "Chomęcice",
      "district": null,
      "confidence": "high"
    }
  },
  "67853846": {
    "skipped": "low_confidence",
    "addr": {
      "street": null,
      "number": null,
      "osiedle": null,
      "city": "null",
      "district": null,
      "confidence": "low"
    }
  },
  "66613938": {
    "skipped": "low_confidence",
    "addr": {
      "street": null,
      "number": null,
      "osiedle": null,
      "city": "Czerniewice",
      "district": null,
      "confidence": "high"
    }
  },
  "68223923": {
    "skipped": "low_confidence",
    "addr": {
      "street": null,
      "number": null,
      "osiedle": null,
      "city": "miasto",
      "district": null,
      "confidence": "medium"
    }
  },
  "68139761": {
    "skipped": "low_confidence",
    "addr": {
      "street": null,
      "number": null,
      "osiedle": null,
      "city": "Morasko",
      "district": null,
      "confidence": "high"
    }
  },
  "68220080": {
    "orig_lat": 52.4918,
    "orig_lon": 16.93791,
    "new_lat": 52.491757,
    "new_lon": 16.937648,
    "dist_m": 18,
    "query": "Lubczykowa Góra 3, Radojewo, Polska",
    "formatted": "Osiedle Lubczykowa Góra, Nowa Wieś Górna, Morasko-Radojewo, Poznań, województwo wielkopolskie, Polska",
    "addr": {
      "street": "Lubczykowa Góra",
      "number": "3",
      "osiedle": "Lubczykowa Góra",
      "city": "Radojewo",
      "district": null,
      "confidence": "high"
    },
    "geo_city": "Poznań",
    "geo_district": "Morasko-Radojewo",
    "corrected": false
  },
  "68218498": {
    "orig_lat": 52.40827,
    "orig_lon": 16.93352,
    "new_lat": 52.491757,
    "new_lon": 16.937648,
    "dist_m": 9288,
    "query": "Lubczykowa Góra 3, Radojewo, Polska",
    "formatted": "Osiedle Lubczykowa Góra, Nowa Wieś Górna, Morasko-Radojewo, Poznań, województwo wielkopolskie, Polska",
    "addr": {
      "street": "Lubczykowa Góra",
      "number": "3",
      "osiedle": "Lubczykowa Góra",
      "city": "Radojewo",
      "district": null,
      "confidence": "high"
    },
    "geo_city": "Poznań",
    "geo_district": "Morasko-Radojewo",
    "corrected": true
  },
  "96820476700067": {
    "orig_lat": 52.36086,
    "orig_lon": 16.74484,
    "new_lat": 52.360971,
    "new_lon": 16.744903,
    "dist_m": 13,
    "query": "Fiołkowa, Gołuski, Polska",
    "formatted": "Fiołkowa, Gołuski, gmina Dopiewo, powiat poznański, województwo wielkopolskie, 62-069, Polska",
    "addr": {
      "street": "Fiołkowa",
      "number": null,
      "osiedle": null,
      "city": "Gołuski",
      "district": null,
      "confidence": "high"
    },
    "geo_city": "Gołuski",
    "geo_district": null,
    "corrected": false
  },
  "68196288": {
    "skipped": "low_confidence",
    "addr": {
      "street": null,
      "number": null,
      "osiedle": null,
      "city": "Chomęcice",
      "district": null,
      "confidence": "high"
    }
  },
  "68195764": {
    "skipped": "low_confidence",
    "addr": {
      "street": null,
      "number": null,
      "osiedle": null,
      "city": "Kamionki",
      "district": null,
      "confidence": "high"
    }
  },
  "96819628800067": {
    "skipped": "low_confidence",
    "addr": {
      "street": null,
      "number": null,
      "osiedle": null,
      "city": "Chomęcice",
      "district": null,
      "confidence": "high"
    }
  },
  "68146623": {
    "skipped": "low_confidence",
    "addr": {
      "street": null,
      "number": null,
      "osiedle": null,
      "city": "Kamionki",
      "district": null,
      "confidence": "high"
    }
  },
  "66396664": {
    "skipped": "low_confidence",
    "addr": {
      "street": null,
      "number": null,
      "osiedle": null,
      "city": "Robakowo",
      "district": null,
      "confidence": "high"
    }
  },
  "67445414": {
    "orig_lat": 52.44888,
    "orig_lon": 16.89124,
    "new_lat": 52.463878,
    "new_lon": 16.865114,
    "dist_m": 2432,
    "query": "Strzeszyńska 77D, Poznań, Polska",
    "formatted": "Strzeszyńska, Podolany, Poznań, województwo wielkopolskie, 60-464, Polska",
    "addr": {
      "street": "Strzeszyńska",
      "number": "77D",
      "osiedle": "Strzeszyńska 77",
      "city": "Poznań",
      "district": "Podolany",
      "confidence": "high"
    },
    "geo_city": "Poznań",
    "geo_district": "Podolany",
    "corrected": true
  },
  "67445452": {
    "orig_lat": 52.44888,
    "orig_lon": 16.89124,
    "new_lat": 52.463878,
    "new_lon": 16.865114,
    "dist_m": 2432,
    "query": "Strzeszyńska 77D, Poznań, Polska",
    "formatted": "Strzeszyńska, Podolany, Poznań, województwo wielkopolskie, 60-464, Polska",
    "addr": {
      "street": "Strzeszyńska",
      "number": "77D",
      "osiedle": "Strzeszyńska 77",
      "city": "Poznań",
      "district": "Podolany",
      "confidence": "high"
    },
    "geo_city": "Poznań",
    "geo_district": "Podolany",
    "corrected": true
  },
  "68222476": {
    "skipped": "low_confidence",
    "addr": {
      "street": null,
      "number": null,
      "osiedle": null,
      "city": "ciche osiedle",
      "district": null,
      "confidence": "medium"
    }
  },
  "68157907": {
    "skipped": "low_confidence",
    "addr": {
      "street": null,
      "number": null,
      "osiedle": null,
      "city": "Plewiska",
      "district": null,
      "confidence": "high"
    }
  },
  "67829051": {
    "skipped": "low_confidence",
    "addr": {
      "street": null,
      "number": null,
      "osiedle": null,
      "city": "Puszcza Zielonka",
      "district": null,
      "confidence": "high"
    }
  },
  "68167193": {
    "skipped": "low_confidence",
    "addr": {
      "street": null,
      "number": null,
      "osiedle": null,
      "city": "Jaszkowo",
      "district": null,
      "confidence": "high"
    }
  },
  "67508127": {
    "skipped": "low_confidence",
    "addr": {
      "street": null,
      "number": null,
      "osiedle": null,
      "city": "Zieliniec",
      "district": null,
      "confidence": "high"
    }
  },
  "68195760": {
    "skipped": "low_confidence",
    "addr": {
      "street": null,
      "number": null,
      "osiedle": null,
      "city": "Dachowa",
      "district": null,
      "confidence": "high"
    }
  },
  "67942531": {
    "orig_lat": 52.37571,
    "orig_lon": 17.10255,
    "new_lat": 52.378827,
    "new_lon": 17.093522,
    "dist_m": 704,
    "query": "PARK Kruszewnia, Kruszewnia, Polska",
    "formatted": "Park Kruszewnia, Kruszewnia, gmina Swarzędz, powiat poznański, województwo wielkopolskie, Polska",
    "addr": {
      "street": null,
      "number": null,
      "osiedle": "PARK Kruszewnia",
      "city": "Kruszewnia",
      "district": "Swarzędz",
      "confidence": "high"
    },
    "geo_city": "Kruszewnia",
    "geo_district": null,
    "corrected": true
  },
  "67822376": {
    "skipped": "low_confidence",
    "addr": {
      "street": null,
      "number": null,
      "osiedle": null,
      "city": "Kruszewnia",
      "district": null,
      "confidence": "high"
    }
  },
  "68224977": {
    "skipped": "low_confidence",
    "addr": {
      "street": null,
      "number": null,
      "osiedle": null,
      "city": "Poznań",
      "district": null,
      "confidence": "high"
    }
  },
  "68139828": {
    "skipped": "low_confidence",
    "addr": {
      "street": null,
      "number": null,
      "osiedle": null,
      "city": "Poznań",
      "district": null,
      "confidence": "medium"
    }
  },
  "65661403": {
    "skipped": "low_confidence",
    "addr": {
      "street": null,
      "number": null,
      "osiedle": null,
      "city": "Czmoniec",
      "district": null,
      "confidence": "high"
    }
  },
  "65662100": {
    "skipped": "low_confidence",
    "addr": {
      "street": null,
      "number": null,
      "osiedle": null,
      "city": "Czmoniec",
      "district": null,
      "confidence": "high"
    }
  },
  "68004119": {
    "orig_lat": 52.37622,
    "orig_lon": 16.95347,
    "new_lat": 52.376396,
    "new_lon": 16.952555,
    "dist_m": 65,
    "query": "Panoramiqa 2, Poznań, Polska",
    "formatted": "Panoramiqa, Starołęka Mała, Starołęka-Minikowo-Marlewo, Poznań, województwo wielkopolskie, Polska",
    "addr": {
      "street": null,
      "number": null,
      "osiedle": "Panoramiqa 2",
      "city": "Poznań",
      "district": null,
      "confidence": "high"
    },
    "geo_city": "Poznań",
    "geo_district": "Starołęka Mała",
    "corrected": false
  },
  "68227231": {
    "orig_lat": 52.37585,
    "orig_lon": 16.95188,
    "new_lat": 52.368462,
    "new_lon": 16.93264,
    "dist_m": 1543,
    "query": "Poznań, Starołęka, Polska",
    "formatted": "Modertrans Poznań, 2, Forteczna, Starołęka Mała, Starołęka-Minikowo-Marlewo, Poznań, województwo wielkopolskie, 61-362, Polska",
    "addr": {
      "street": null,
      "number": null,
      "osiedle": null,
      "city": "Starołęka",
      "district": "Poznań",
      "confidence": "high"
    },
    "geo_city": "Poznań",
    "geo_district": "Starołęka Mała",
    "corrected": true
  },
  "68223085": {
    "orig_lat": 52.3782,
    "orig_lon": 16.95099,
    "new_lat": 52.382758,
    "new_lon": 16.952265,
    "dist_m": 514,
    "query": "Nowe Miasto - Rataje, Poznań, Polska",
    "formatted": "Straż Miejska Referat Nowe Miasto, 35A, Osiedle Bohaterów II Wojny Światowej, Rataje, Poznań, województwo wielkopolskie, 61-386, Polska",
    "addr": {
      "street": null,
      "number": null,
      "osiedle": "Nowe Miasto - Rataje",
      "city": "Poznań",
      "district": "Rataje",
      "confidence": "high"
    },
    "geo_city": "Poznań",
    "geo_district": "Rataje",
    "corrected": true
  },
  "68192041": {
    "skipped": "low_confidence",
    "addr": {
      "street": null,
      "number": null,
      "osiedle": null,
      "city": "miasto",
      "district": null,
      "confidence": "medium"
    }
  },
  "65229448": {
    "orig_lat": 52.42961,
    "orig_lon": 16.9519,
    "new_lat": 52.429902,
    "new_lon": 16.952328,
    "dist_m": 44,
    "query": "ul. Wilczak 16 A, Poznań, Polska",
    "formatted": "Ulica Wilczak, Osiedla Szeląg, Stare Winogrady, Winogrady, Poznań, województwo wielkopolskie, 61-623, Polska",
    "addr": {
      "street": "ul. Wilczak",
      "number": "16 A",
      "osiedle": "Tarasy Wilczak",
      "city": "Poznań",
      "district": "Winogrady",
      "confidence": "high"
    },
    "geo_city": "Poznań",
    "geo_district": "Winogrady",
    "corrected": false
  },
  "68163680": {
    "skipped": "low_confidence",
    "addr": {
      "street": null,
      "number": null,
      "osiedle": null,
      "city": "Kiekrz",
      "district": null,
      "confidence": "high"
    }
  },
  "67668651": {
    "skipped": "low_confidence",
    "addr": {
      "street": null,
      "number": null,
      "osiedle": null,
      "city": "Kostrzyn Wielkopolski",
      "district": null,
      "confidence": "high"
    }
  },
  "68129612": {
    "skipped": "low_confidence",
    "addr": {
      "street": null,
      "number": null,
      "osiedle": null,
      "city": "miasto",
      "district": null,
      "confidence": "medium"
    }
  },
  "68173349": {
    "skipped": "low_confidence",
    "addr": {
      "street": null,
      "number": null,
      "osiedle": null,
      "city": "Poznań",
      "district": null,
      "confidence": "high"
    }
  },
  "68224656": {
    "skipped": "low_confidence",
    "addr": {
      "street": null,
      "number": null,
      "osiedle": null,
      "city": "Poznań",
      "district": null,
      "confidence": "high"
    }
  },
  "68219460": {
    "skipped": "low_confidence",
    "addr": {
      "street": null,
      "number": null,
      "osiedle": null,
      "city": "Poznań",
      "district": null,
      "confidence": "high"
    }
  },
  "68137860": {
    "skipped": "low_confidence",
    "addr": {
      "street": null,
      "number": null,
      "osiedle": null,
      "city": "Poznań",
      "district": null,
      "confidence": "high"
    }
  },
  "68203228": {
    "skipped": "low_confidence",
    "addr": {
      "street": null,
      "number": null,
      "osiedle": null,
      "city": "Poznań",
      "district": null,
      "confidence": "high"
    }
  },
  "96817334900067": {
    "skipped": "low_confidence",
    "addr": {
      "street": null,
      "number": null,
      "osiedle": null,
      "city": "Poznań",
      "district": null,
      "confidence": "high"
    }
  },
  "68224918": {
    "skipped": "low_confidence",
    "addr": {
      "street": null,
      "number": null,
      "osiedle": null,
      "city": "Poznań",
      "district": null,
      "confidence": "high"
    }
  },
  "68223168": {
    "skipped": "low_confidence",
    "addr": {
      "street": null,
      "number": null,
      "osiedle": null,
      "city": "Poznań",
      "district": null,
      "confidence": "high"
    }
  },
  "68221156": {
    "orig_lat": 52.39885,
    "orig_lon": 17.11339,
    "new_lat": 52.410373,
    "new_lon": 17.077104,
    "dist_m": 2775,
    "query": "Gerberowa, Swarzędz, Polska",
    "formatted": "Swarzędz, gmina Swarzędz, powiat poznański, województwo wielkopolskie, 62-020, Polska",
    "addr": {
      "street": "Gerberowa",
      "number": null,
      "osiedle": "Gerberowa Park",
      "city": "Swarzędz",
      "district": null,
      "confidence": "high"
    },
    "geo_city": "Swarzędz",
    "geo_district": null,
    "corrected": true
  },
  "68219456": {
    "skipped": "low_confidence",
    "addr": {
      "street": null,
      "number": null,
      "osiedle": null,
      "city": "Poznań",
      "district": null,
      "confidence": "high"
    }
  },
  "68215990": {
    "skipped": "low_confidence",
    "addr": {
      "street": null,
      "number": null,
      "osiedle": null,
      "city": "Poznań",
      "district": null,
      "confidence": "high"
    }
  },
  "68007993": {
    "skipped": "low_confidence",
    "addr": {
      "street": null,
      "number": null,
      "osiedle": null,
      "city": "Dopiewiec",
      "district": null,
      "confidence": "high"
    }
  },
  "68211777": {
    "skipped": "low_confidence",
    "addr": {
      "street": null,
      "number": null,
      "osiedle": null,
      "city": "Poznań",
      "district": null,
      "confidence": "high"
    }
  },
  "67792775": {
    "orig_lat": 52.32811,
    "orig_lon": 17.12529,
    "new_lat": 52.319873,
    "new_lon": 17.121215,
    "dist_m": 957,
    "query": "Kleszczewo, Komorniki, Polska",
    "formatted": "Poznań Wschód, Trasa Powstańców Wielkopolskich, Komorniki, gmina Kleszczewo, powiat poznański, województwo wielkopolskie, 63-006, Polska",
    "addr": {
      "street": null,
      "number": null,
      "osiedle": null,
      "city": "Komorniki",
      "district": "Kleszczewo",
      "confidence": "high"
    },
    "geo_city": "Komorniki",
    "geo_district": null,
    "corrected": true
  },
  "68204205": {
    "skipped": "low_confidence",
    "addr": {
      "street": null,
      "number": null,
      "osiedle": null,
      "city": "Poznań",
      "district": null,
      "confidence": "high"
    }
  },
  "68201693": {
    "skipped": "low_confidence",
    "addr": {
      "street": null,
      "number": null,
      "osiedle": null,
      "city": "Poznań",
      "district": null,
      "confidence": "high"
    }
  },
  "68196290": {
    "skipped": "low_confidence",
    "addr": {
      "street": null,
      "number": null,
      "osiedle": null,
      "city": "Komorniki",
      "district": null,
      "confidence": "high"
    }
  },
  "68070390": {
    "skipped": "low_confidence",
    "addr": {
      "street": null,
      "number": null,
      "osiedle": null,
      "city": "Kobylniki",
      "district": null,
      "confidence": "high"
    }
  },
  "68187447": {
    "orig_lat": 52.37266,
    "orig_lon": 16.7756,
    "new_lat": 52.360665,
    "new_lon": 16.745623,
    "dist_m": 2433,
    "query": "Irysowa, Gołuski, Polska",
    "formatted": "Irysowa, Gołuski, gmina Dopiewo, powiat poznański, województwo wielkopolskie, 62-069, Polska",
    "addr": {
      "street": "Irysowa",
      "number": null,
      "osiedle": null,
      "city": "Gołuski",
      "district": null,
      "confidence": "high"
    },
    "geo_city": "Gołuski",
    "geo_district": null,
    "corrected": true
  },
  "68183350": {
    "orig_lat": 52.35997,
    "orig_lon": 16.74547,
    "new_lat": 52.360665,
    "new_lon": 16.745623,
    "dist_m": 78,
    "query": "Irysowa, Gołuski, Polska",
    "formatted": "Irysowa, Gołuski, gmina Dopiewo, powiat poznański, województwo wielkopolskie, 62-069, Polska",
    "addr": {
      "street": "Irysowa",
      "number": null,
      "osiedle": null,
      "city": "Gołuski",
      "district": "Dopiewo",
      "confidence": "high"
    },
    "geo_city": "Gołuski",
    "geo_district": null,
    "corrected": false
  },
  "68182029": {
    "skipped": "low_confidence",
    "addr": {
      "street": null,
      "number": null,
      "osiedle": null,
      "city": "Poznań",
      "district": null,
      "confidence": "high"
    }
  },
  "68069266": {
    "skipped": "low_confidence",
    "addr": {
      "street": null,
      "number": null,
      "osiedle": null,
      "city": "Dopiewo",
      "district": null,
      "confidence": "high"
    }
  },
  "68158819": {
    "skipped": "low_confidence",
    "addr": {
      "street": null,
      "number": null,
      "osiedle": null,
      "city": "Poznań",
      "district": null,
      "confidence": "high"
    }
  },
  "68151690": {
    "skipped": "low_confidence",
    "addr": {
      "street": null,
      "number": null,
      "osiedle": null,
      "city": "Poznań",
      "district": null,
      "confidence": "high"
    }
  },
  "68150391": {
    "skipped": "low_confidence",
    "addr": {
      "street": null,
      "number": null,
      "osiedle": null,
      "city": "Poznań",
      "district": null,
      "confidence": "high"
    }
  },
  "67894209": {
    "skipped": "low_confidence",
    "addr": {
      "street": null,
      "number": null,
      "osiedle": null,
      "city": "null",
      "district": null,
      "confidence": "low"
    }
  },
  "68141540": {
    "skipped": "low_confidence",
    "addr": {
      "street": null,
      "number": null,
      "osiedle": null,
      "city": "Poznań",
      "district": null,
      "confidence": "high"
    }
  },
  "67639259": {
    "skipped": "low_confidence",
    "addr": {
      "street": null,
      "number": null,
      "osiedle": null,
      "city": "Kiekrz",
      "district": null,
      "confidence": "high"
    }
  },
  "68060887": {
    "orig_lat": 52.35997,
    "orig_lon": 16.74547,
    "new_lat": 52.360665,
    "new_lon": 16.745623,
    "dist_m": 78,
    "query": "Irysowa, Gołuski, Polska",
    "formatted": "Irysowa, Gołuski, gmina Dopiewo, powiat poznański, województwo wielkopolskie, 62-069, Polska",
    "addr": {
      "street": "Irysowa",
      "number": null,
      "osiedle": null,
      "city": "Gołuski",
      "district": "Dopiewo",
      "confidence": "high"
    },
    "geo_city": "Gołuski",
    "geo_district": null,
    "corrected": false
  },
  "68029637": {
    "orig_lat": 52.45718,
    "orig_lon": 16.88339,
    "new_lat": 52.443035,
    "new_lon": 16.891833,
    "dist_m": 1674,
    "query": "Jasielska 8C, Poznań, Polska",
    "formatted": "8c, Jasielska, Podolany, Poznań, województwo wielkopolskie, 60-476, Polska",
    "addr": {
      "street": "Jasielska",
      "number": "8C",
      "osiedle": null,
      "city": "Poznań",
      "district": "Jeżyce",
      "confidence": "high"
    },
    "geo_city": "Poznań",
    "geo_district": "Podolany",
    "corrected": true
  },
  "96802963700067": {
    "orig_lat": 52.45718,
    "orig_lon": 16.88339,
    "new_lat": 52.443035,
    "new_lon": 16.891833,
    "dist_m": 1674,
    "query": "Jasielska 8C, Poznań, Polska",
    "formatted": "8c, Jasielska, Podolany, Poznań, województwo wielkopolskie, 60-476, Polska",
    "addr": {
      "street": "Jasielska",
      "number": "8C",
      "osiedle": null,
      "city": "Poznań",
      "district": "Jeżyce",
      "confidence": "high"
    },
    "geo_city": "Poznań",
    "geo_district": "Podolany",
    "corrected": true
  },
  "68163549": {
    "orig_lat": 52.43178,
    "orig_lon": 16.94622,
    "new_lat": 52.434865,
    "new_lon": 16.938353,
    "dist_m": 634,
    "query": "Winogrady, Poznań, Polska",
    "formatted": "Winogrady, Poznań, województwo wielkopolskie, 61-636, Polska",
    "addr": {
      "street": null,
      "number": null,
      "osiedle": null,
      "city": "Poznań",
      "district": "Winogrady",
      "confidence": "high"
    },
    "geo_city": "Poznań",
    "geo_district": "Winogrady",
    "corrected": true
  },
  "67445471": {
    "orig_lat": 52.44888,
    "orig_lon": 16.89124,
    "new_lat": 52.448685,
    "new_lon": 16.89088,
    "dist_m": 33,
    "query": "Strzeszyńska 77, Poznań, Polska",
    "formatted": "77, Strzeszyńska, Podolany, Poznań, województwo wielkopolskie, 60-479, Polska",
    "addr": {
      "street": "Strzeszyńska",
      "number": "77",
      "osiedle": "Strzeszyńska 77",
      "city": "Poznań",
      "district": "Podolany",
      "confidence": "high"
    },
    "geo_city": "Poznań",
    "geo_district": "Podolany",
    "corrected": false
  },
  "68037598": {
    "orig_lat": 52.44377,
    "orig_lon": 16.89437,
    "new_lat": 52.456781,
    "new_lon": 16.887939,
    "dist_m": 1511,
    "query": "Podolany, Poznań, Polska",
    "formatted": "Podolany, Poznań, województwo wielkopolskie, Polska",
    "addr": {
      "street": null,
      "number": null,
      "osiedle": "Podolany",
      "city": "Poznań",
      "district": null,
      "confidence": "high"
    },
    "geo_city": "Poznań",
    "geo_district": "Podolany",
    "corrected": true
  },
  "68178225": {
    "orig_lat": 52.44361,
    "orig_lon": 16.89497,
    "new_lat": 52.456781,
    "new_lon": 16.887939,
    "dist_m": 1540,
    "query": "Podolany, Poznań, Polska",
    "formatted": "Podolany, Poznań, województwo wielkopolskie, Polska",
    "addr": {
      "street": null,
      "number": null,
      "osiedle": "Podolany",
      "city": "Poznań",
      "district": null,
      "confidence": "high"
    },
    "geo_city": "Poznań",
    "geo_district": "Podolany",
    "corrected": true
  },
  "65229255": {
    "orig_lat": 52.42961,
    "orig_lon": 16.9519,
    "new_lat": 52.429872,
    "new_lon": 16.951968,
    "dist_m": 29,
    "query": "Wilczak 16 A, Poznań, Polska",
    "formatted": "16a, Wilczak, Szeląg, Stare Winogrady, Winogrady, Poznań, województwo wielkopolskie, 61-623, Polska",
    "addr": {
      "street": "Wilczak",
      "number": "16 A",
      "osiedle": "Tarasy Wilczak",
      "city": "Poznań",
      "district": "Winogrady",
      "confidence": "high"
    },
    "geo_city": "Poznań",
    "geo_district": "Winogrady",
    "corrected": false
  },
  "68039321": {
    "skipped": "low_confidence",
    "addr": {
      "street": null,
      "number": null,
      "osiedle": null,
      "city": "null",
      "district": null,
      "confidence": "low"
    }
  },
  "68163219": {
    "orig_lat": 52.4439,
    "orig_lon": 16.89529,
    "new_lat": 52.456781,
    "new_lon": 16.887939,
    "dist_m": 1516,
    "query": "Podolany, Poznań, Polska",
    "formatted": "Podolany, Poznań, województwo wielkopolskie, Polska",
    "addr": {
      "street": null,
      "number": null,
      "osiedle": "Podolany",
      "city": "Poznań",
      "district": null,
      "confidence": "high"
    },
    "geo_city": "Poznań",
    "geo_district": "Podolany",
    "corrected": true
  },
  "68094244": {
    "skipped": "low_confidence",
    "addr": {
      "street": null,
      "number": null,
      "osiedle": null,
      "city": "Poznań",
      "district": null,
      "confidence": "high"
    }
  },
  "67400479": {
    "skipped": "low_confidence",
    "addr": {
      "street": null,
      "number": null,
      "osiedle": null,
      "city": "null",
      "district": null,
      "confidence": "low"
    }
  },
  "67445556": {
    "orig_lat": 52.44888,
    "orig_lon": 16.89124,
    "new_lat": 52.448685,
    "new_lon": 16.89088,
    "dist_m": 33,
    "query": "Strzeszyńska 77, Poznań, Polska",
    "formatted": "77, Strzeszyńska, Podolany, Poznań, województwo wielkopolskie, 60-479, Polska",
    "addr": {
      "street": "Strzeszyńska",
      "number": "77",
      "osiedle": "Strzeszyńska 77",
      "city": "Poznań",
      "district": "Podolany",
      "confidence": "high"
    },
    "geo_city": "Poznań",
    "geo_district": "Podolany",
    "corrected": false
  },
  "68138003": {
    "skipped": "low_confidence",
    "addr": {
      "street": null,
      "number": null,
      "osiedle": null,
      "city": "null",
      "district": null,
      "confidence": "low"
    }
  },
  "68149903": {
    "skipped": "low_confidence",
    "addr": {
      "street": null,
      "number": null,
      "osiedle": null,
      "city": "miasto",
      "district": null,
      "confidence": "medium"
    }
  },
  "68173246": {
    "orig_lat": 52.41708,
    "orig_lon": 16.89549,
    "new_lat": 52.413479,
    "new_lon": 16.902793,
    "dist_m": 637,
    "query": "Jeżyce, Poznań, Polska",
    "formatted": "Jeżyce, Poznań, województwo wielkopolskie, Polska",
    "addr": {
      "street": null,
      "number": null,
      "osiedle": null,
      "city": "Poznań",
      "district": "Jeżyce",
      "confidence": "high"
    },
    "geo_city": "Poznań",
    "geo_district": "Jeżyce",
    "corrected": true
  },
  "68145539": {
    "orig_lat": 52.43693,
    "orig_lon": 16.9472,
    "new_lat": 52.434865,
    "new_lon": 16.938353,
    "dist_m": 642,
    "query": "Winogrady, Poznań, Polska",
    "formatted": "Winogrady, Poznań, województwo wielkopolskie, 61-636, Polska",
    "addr": {
      "street": null,
      "number": null,
      "osiedle": "Winogrady",
      "city": "Poznań",
      "district": null,
      "confidence": "high"
    },
    "geo_city": "Poznań",
    "geo_district": "Winogrady",
    "corrected": true
  },
  "65866357": {
    "orig_lat": 52.4076,
    "orig_lon": 17.07351,
    "new_lat": 52.378827,
    "new_lon": 17.093522,
    "dist_m": 3476,
    "query": "PARK Kruszewnia, Kruszewnia, Polska",
    "formatted": "Park Kruszewnia, Kruszewnia, gmina Swarzędz, powiat poznański, województwo wielkopolskie, Polska",
    "addr": {
      "street": null,
      "number": null,
      "osiedle": "PARK Kruszewnia",
      "city": "Kruszewnia",
      "district": "Swarzędz",
      "confidence": "high"
    },
    "geo_city": "Kruszewnia",
    "geo_district": null,
    "corrected": true
  },
  "68014468": {
    "skipped": "low_confidence",
    "addr": {
      "street": null,
      "number": null,
      "osiedle": null,
      "city": "Jelonek",
      "district": null,
      "confidence": "high"
    }
  },
  "67526456": {
    "orig_lat": 52.38035,
    "orig_lon": 16.60985,
    "new_lat": 52.38843,
    "new_lon": 16.58459,
    "dist_m": 1936,
    "query": "Leśna 26, Niepruszewo, Polska",
    "formatted": "26, Leśna, Niepruszewo-Huby, Niepruszewo, gmina Buk, powiat poznański, województwo wielkopolskie, 64-320, Polska",
    "addr": {
      "street": "Leśna",
      "number": "26",
      "osiedle": "Inwestycja Leśna",
      "city": "Niepruszewo",
      "district": "Buk",
      "confidence": "high"
    },
    "geo_city": "Niepruszewo",
    "geo_district": null,
    "corrected": true
  },
  "66436713": {
    "skipped": "low_confidence",
    "addr": {
      "street": null,
      "number": null,
      "osiedle": null,
      "city": "Błażejewko",
      "district": null,
      "confidence": "high"
    }
  },
  "66476834": {
    "skipped": "low_confidence",
    "addr": {
      "street": null,
      "number": null,
      "osiedle": null,
      "city": "Błażejewko",
      "district": null,
      "confidence": "high"
    }
  },
  "68085760": {
    "skipped": "low_confidence",
    "addr": {
      "street": null,
      "number": null,
      "osiedle": null,
      "city": "Mrowino",
      "district": null,
      "confidence": "high"
    }
  },
  "67003140": {
    "skipped": "low_confidence",
    "addr": {
      "street": null,
      "number": null,
      "osiedle": null,
      "city": "Błażejewko",
      "district": null,
      "confidence": "high"
    }
  },
  "65566232": {
    "skipped": "low_confidence",
    "addr": {
      "street": null,
      "number": null,
      "osiedle": null,
      "city": "Bnińskie",
      "district": null,
      "confidence": "high"
    }
  },
  "68196077": {
    "skipped": "low_confidence",
    "addr": {
      "street": null,
      "number": null,
      "osiedle": null,
      "city": "Wiry",
      "district": null,
      "confidence": "high"
    }
  },
  "67916501": {
    "orig_lat": 52.54306,
    "orig_lon": 16.94337,
    "new_lat": 52.545466,
    "new_lon": 16.945774,
    "dist_m": 313,
    "query": "Osiedle Natura Biedrusko, Biedrusko, Polska",
    "formatted": "Chata Polska, 12, Zjednoczenia, Osiedle Natura, Biedrusko, gmina Suchy Las, powiat poznański, województwo wielkopolskie, 62-003, Polska",
    "addr": {
      "street": null,
      "number": null,
      "osiedle": "Osiedle Natura Biedrusko",
      "city": "Biedrusko",
      "district": null,
      "confidence": "high"
    },
    "geo_city": "Biedrusko",
    "geo_district": null,
    "corrected": true
  },
  "68125120": {
    "skipped": "low_confidence",
    "addr": {
      "street": null,
      "number": null,
      "osiedle": null,
      "city": "Poznań",
      "district": null,
      "confidence": "high"
    }
  },
  "68125170": {
    "skipped": "low_confidence",
    "addr": {
      "street": null,
      "number": null,
      "osiedle": null,
      "city": "Poznań",
      "district": null,
      "confidence": "high"
    }
  },
  "67848194": {
    "skipped": "low_confidence",
    "addr": {
      "street": null,
      "number": null,
      "osiedle": null,
      "city": "Poznań",
      "district": null,
      "confidence": "high"
    }
  },
  "67962549": {
    "orig_lat": 52.43614,
    "orig_lon": 16.83065,
    "new_lat": 52.438189,
    "new_lon": 16.830541,
    "dist_m": 228,
    "query": "Santocka 99, Smochowice, Polska",
    "formatted": "Santocka, Smochowice, Krzyżowniki-Smochowice, Poznań, województwo wielkopolskie, 60-432, Polska",
    "addr": {
      "street": "Santocka",
      "number": "99",
      "osiedle": null,
      "city": "Smochowice",
      "district": null,
      "confidence": "high"
    },
    "geo_city": "Poznań",
    "geo_district": "Smochowice",
    "corrected": true
  },
  "67781826": {
    "skipped": "low_confidence",
    "addr": {
      "street": null,
      "number": null,
      "osiedle": null,
      "city": "Poznań",
      "district": null,
      "confidence": "high"
    }
  },
  "66731591": {
    "orig_lat": 52.34381,
    "orig_lon": 16.71622,
    "new_lat": 52.34663,
    "new_lon": 16.690294,
    "dist_m": 1789,
    "query": "Dopiewo, Konarzewo, Polska",
    "formatted": "Dopiewo Wyzwolenia n/ż, Wyzwolenia, Konarzewo, gmina Dopiewo, powiat poznański, województwo wielkopolskie, 62-070, Polska",
    "addr": {
      "street": null,
      "number": null,
      "osiedle": null,
      "city": "Konarzewo",
      "district": "Dopiewo",
      "confidence": "high"
    },
    "geo_city": "Konarzewo",
    "geo_district": null,
    "corrected": true
  },
  "66680254": {
    "skipped": "low_confidence",
    "addr": {
      "street": null,
      "number": null,
      "osiedle": null,
      "city": "Suchy Las",
      "district": null,
      "confidence": "high"
    }
  },
  "66528925": {
    "orig_lat": 52.39177,
    "orig_lon": 16.84631,
    "new_lat": 52.39155,
    "new_lon": 16.846851,
    "dist_m": 44,
    "query": "Jeleniogórska 5, Poznań, Polska",
    "formatted": "5, Jeleniogórska, Junikowo, Poznań, województwo wielkopolskie, 60-179, Polska",
    "addr": {
      "street": "Jeleniogórska",
      "number": "5",
      "osiedle": null,
      "city": null,
      "district": null,
      "confidence": "high"
    },
    "geo_city": "Poznań",
    "geo_district": "Junikowo",
    "corrected": false
  },
  "68140840": {
    "orig_lat": 52.43603,
    "orig_lon": 16.94871,
    "new_lat": 52.434865,
    "new_lon": 16.938353,
    "dist_m": 714,
    "query": "Winogrady, Poznań, Polska",
    "formatted": "Winogrady, Poznań, województwo wielkopolskie, 61-636, Polska",
    "addr": {
      "street": null,
      "number": null,
      "osiedle": "Winogrady",
      "city": "Poznań",
      "district": null,
      "confidence": "high"
    },
    "geo_city": "Poznań",
    "geo_district": "Winogrady",
    "corrected": true
  },
  "67927694": {
    "orig_lat": 52.32957,
    "orig_lon": 17.12792,
    "new_lat": 52.319873,
    "new_lon": 17.121215,
    "dist_m": 1171,
    "query": "Kleszczewo, Komorniki, Polska",
    "formatted": "Poznań Wschód, Trasa Powstańców Wielkopolskich, Komorniki, gmina Kleszczewo, powiat poznański, województwo wielkopolskie, 63-006, Polska",
    "addr": {
      "street": null,
      "number": null,
      "osiedle": null,
      "city": "Komorniki",
      "district": "Kleszczewo",
      "confidence": "high"
    },
    "geo_city": "Komorniki",
    "geo_district": null,
    "corrected": true
  },
  "68014375": {
    "skipped": "low_confidence",
    "addr": {
      "street": null,
      "number": null,
      "osiedle": null,
      "city": "Jelonek",
      "district": null,
      "confidence": "high"
    }
  },
  "67848387": {
    "skipped": "low_confidence",
    "addr": {
      "street": null,
      "number": null,
      "osiedle": null,
      "city": "Komorniki",
      "district": null,
      "confidence": "high"
    }
  },
  "68220112": {
    "orig_lat": 52.40827,
    "orig_lon": 16.93352,
    "new_lat": 52.491757,
    "new_lon": 16.937648,
    "dist_m": 9288,
    "query": "Lubczykowa Góra 3, Radojewo, Polska",
    "formatted": "Osiedle Lubczykowa Góra, Nowa Wieś Górna, Morasko-Radojewo, Poznań, województwo wielkopolskie, Polska",
    "addr": {
      "street": "Lubczykowa Góra",
      "number": "3",
      "osiedle": "Lubczykowa Góra",
      "city": "Radojewo",
      "district": "null",
      "confidence": "high"
    },
    "geo_city": "Poznań",
    "geo_district": "Morasko-Radojewo",
    "corrected": true
  },
  "68218331": {
    "orig_lat": 52.49334,
    "orig_lon": 16.94365,
    "new_lat": 52.491757,
    "new_lon": 16.937648,
    "dist_m": 443,
    "query": "Lubczykowa Góra 3, Radojewo, Polska",
    "formatted": "Osiedle Lubczykowa Góra, Nowa Wieś Górna, Morasko-Radojewo, Poznań, województwo wielkopolskie, Polska",
    "addr": {
      "street": "Lubczykowa Góra",
      "number": "3",
      "osiedle": "Lubczykowa Góra",
      "city": "Radojewo",
      "district": null,
      "confidence": "high"
    },
    "geo_city": "Poznań",
    "geo_district": "Morasko-Radojewo",
    "corrected": true
  },
  "67878924": {
    "skipped": "low_confidence",
    "addr": {
      "street": null,
      "number": null,
      "osiedle": null,
      "city": "Poznań",
      "district": null,
      "confidence": "high"
    }
  },
  "68196074": {
    "skipped": "low_confidence",
    "addr": {
      "street": null,
      "number": null,
      "osiedle": null,
      "city": "Czapury",
      "district": null,
      "confidence": "high"
    }
  },
  "67510949": {
    "skipped": "low_confidence",
    "addr": {
      "street": null,
      "number": null,
      "osiedle": null,
      "city": "Poznań",
      "district": null,
      "confidence": "high"
    }
  },
  "68174759": {
    "orig_lat": 52.45911,
    "orig_lon": 17.17189,
    "new_lat": 52.458684,
    "new_lon": 17.171322,
    "dist_m": 61,
    "query": "Baśniowa, Biskupice, Polska",
    "formatted": "Baśniowa, Biskupice Wielkopolskie, Biskupice, gmina Pobiedziska, powiat poznański, województwo wielkopolskie, 62-007, Polska",
    "addr": {
      "street": "Baśniowa",
      "number": null,
      "osiedle": null,
      "city": "Biskupice",
      "district": null,
      "confidence": "high"
    },
    "geo_city": "Biskupice",
    "geo_district": null,
    "corrected": false
  },
  "67822354": {
    "skipped": "low_confidence",
    "addr": {
      "street": null,
      "number": null,
      "osiedle": null,
      "city": "Zalasewo",
      "district": null,
      "confidence": "high"
    }
  },
  "68226632": {
    "orig_lat": 52.4151,
    "orig_lon": 16.89929,
    "new_lat": 52.415905,
    "new_lon": 16.890163,
    "dist_m": 625,
    "query": "ul. Jana Henryka Dąbrowskiego, Poznań, Polska",
    "formatted": "Hop & go, Jana Henryka Dąbrowskiego, Ogrody, Poznań, województwo wielkopolskie, 60-543, Polska",
    "addr": {
      "street": "ul. Jana Henryka Dąbrowskiego",
      "number": null,
      "osiedle": null,
      "city": "Poznań",
      "district": "Jeżyce",
      "confidence": "high"
    },
    "geo_city": "Poznań",
    "geo_district": "Ogrody",
    "corrected": true
  },
  "96822663200067": {
    "orig_lat": 52.4151,
    "orig_lon": 16.89929,
    "new_lat": 52.415905,
    "new_lon": 16.890163,
    "dist_m": 625,
    "query": "ul. Jana Henryka Dąbrowskiego, Poznań, Polska",
    "formatted": "Hop & go, Jana Henryka Dąbrowskiego, Ogrody, Poznań, województwo wielkopolskie, 60-543, Polska",
    "addr": {
      "street": "ul. Jana Henryka Dąbrowskiego",
      "number": null,
      "osiedle": null,
      "city": "Poznań",
      "district": "Jeżyce",
      "confidence": "high"
    },
    "geo_city": "Poznań",
    "geo_district": "Ogrody",
    "corrected": true
  },
  "68211543": {
    "orig_lat": 52.41542,
    "orig_lon": 16.89158,
    "new_lat": 52.413479,
    "new_lon": 16.902793,
    "dist_m": 791,
    "query": "Jeżyce, Poznań, Polska",
    "formatted": "Jeżyce, Poznań, województwo wielkopolskie, Polska",
    "addr": {
      "street": null,
      "number": null,
      "osiedle": null,
      "city": "Poznań",
      "district": "Jeżyce",
      "confidence": "high"
    },
    "geo_city": "Poznań",
    "geo_district": "Jeżyce",
    "corrected": true
  },
  "68163550": {
    "orig_lat": 52.42003,
    "orig_lon": 16.89398,
    "new_lat": 52.413479,
    "new_lon": 16.902793,
    "dist_m": 942,
    "query": "Jeżyce, Poznań, Polska",
    "formatted": "Jeżyce, Poznań, województwo wielkopolskie, Polska",
    "addr": {
      "street": null,
      "number": null,
      "osiedle": null,
      "city": "Poznań",
      "district": "Jeżyce",
      "confidence": "high"
    },
    "geo_city": "Poznań",
    "geo_district": "Jeżyce",
    "corrected": true
  },
  "96821154300067": {
    "orig_lat": 52.41542,
    "orig_lon": 16.89158,
    "new_lat": 52.413479,
    "new_lon": 16.902793,
    "dist_m": 791,
    "query": "Jeżyce, Poznań, Polska",
    "formatted": "Jeżyce, Poznań, województwo wielkopolskie, Polska",
    "addr": {
      "street": null,
      "number": null,
      "osiedle": null,
      "city": "Poznań",
      "district": "Jeżyce",
      "confidence": "high"
    },
    "geo_city": "Poznań",
    "geo_district": "Jeżyce",
    "corrected": true
  },
  "65407009": {
    "skipped": "low_confidence",
    "addr": {
      "street": "Jeleniogórska",
      "number": "5",
      "osiedle": null,
      "city": null,
      "district": null,
      "confidence": "low"
    }
  },
  "67639699": {
    "skipped": "low_confidence",
    "addr": {
      "street": null,
      "number": null,
      "osiedle": null,
      "city": "Komorniki",
      "district": null,
      "confidence": "high"
    }
  },
  "96763969900067": {
    "skipped": "low_confidence",
    "addr": {
      "street": null,
      "number": null,
      "osiedle": null,
      "city": "Komorniki",
      "district": null,
      "confidence": "high"
    }
  },
  "68223793": {
    "orig_lat": 52.44377,
    "orig_lon": 16.89437,
    "new_lat": 52.456781,
    "new_lon": 16.887939,
    "dist_m": 1511,
    "query": "Podolany, Poznań, Polska",
    "formatted": "Podolany, Poznań, województwo wielkopolskie, Polska",
    "addr": {
      "street": null,
      "number": null,
      "osiedle": "Podolany",
      "city": "Poznań",
      "district": null,
      "confidence": "high"
    },
    "geo_city": "Poznań",
    "geo_district": "Podolany",
    "corrected": true
  },
  "68021803": {
    "orig_lat": 52.45718,
    "orig_lon": 16.88339,
    "new_lat": 52.443035,
    "new_lon": 16.891833,
    "dist_m": 1674,
    "query": "Jasielska 8C, Poznań, Polska",
    "formatted": "8c, Jasielska, Podolany, Poznań, województwo wielkopolskie, 60-476, Polska",
    "addr": {
      "street": "Jasielska",
      "number": "8C",
      "osiedle": null,
      "city": "Poznań",
      "district": "Jeżyce",
      "confidence": "high"
    },
    "geo_city": "Poznań",
    "geo_district": "Podolany",
    "corrected": true
  },
  "68053951": {
    "orig_lat": 52.44339,
    "orig_lon": 16.9183,
    "new_lat": 52.443389,
    "new_lon": 16.918298,
    "dist_m": 0,
    "query": "Lechicka 65, Poznań, Polska",
    "formatted": "65, Lechicka, Piątkowo, Poznań, województwo wielkopolskie, 61-693, Polska",
    "addr": {
      "street": "Lechicka",
      "number": "65",
      "osiedle": "Lechicka 65",
      "city": "Poznań",
      "district": "Piątkowo",
      "confidence": "high"
    },
    "geo_city": "Poznań",
    "geo_district": "Piątkowo",
    "corrected": false
  },
  "67967984": {
    "orig_lat": 52.37332,
    "orig_lon": 16.95109,
    "new_lat": 52.373298,
    "new_lon": 16.947588,
    "dist_m": 238,
    "query": "Przy Unii, Poznań, Polska",
    "formatted": "Osiedle Przy Unii Etap II, Starołęka Mała, Starołęka-Minikowo-Marlewo, Poznań, województwo wielkopolskie, Polska",
    "addr": {
      "street": "Przy Unii",
      "number": null,
      "osiedle": "Przy Unii",
      "city": "Poznań",
      "district": null,
      "confidence": "high"
    },
    "geo_city": "Poznań",
    "geo_district": "Starołęka Mała",
    "corrected": true
  },
  "68175458": {
    "orig_lat": 52.41708,
    "orig_lon": 16.89549,
    "new_lat": 52.413479,
    "new_lon": 16.902793,
    "dist_m": 637,
    "query": "Jeżyce, Poznań, Polska",
    "formatted": "Jeżyce, Poznań, województwo wielkopolskie, Polska",
    "addr": {
      "street": null,
      "number": null,
      "osiedle": null,
      "city": "Poznań",
      "district": "Jeżyce",
      "confidence": "high"
    },
    "geo_city": "Poznań",
    "geo_district": "Jeżyce",
    "corrected": true
  },
  "68004072": {
    "orig_lat": 52.37622,
    "orig_lon": 16.95347,
    "new_lat": 52.376396,
    "new_lon": 16.952555,
    "dist_m": 65,
    "query": "Panoramiqa 2, Poznań, Polska",
    "formatted": "Panoramiqa, Starołęka Mała, Starołęka-Minikowo-Marlewo, Poznań, województwo wielkopolskie, Polska",
    "addr": {
      "street": null,
      "number": null,
      "osiedle": "Panoramiqa 2",
      "city": "Poznań",
      "district": null,
      "confidence": "high"
    },
    "geo_city": "Poznań",
    "geo_district": "Starołęka Mała",
    "corrected": false
  },
  "68196287": {
    "skipped": "low_confidence",
    "addr": {
      "street": null,
      "number": null,
      "osiedle": null,
      "city": "X",
      "district": null,
      "confidence": "high"
    }
  },
  "68183139": {
    "skipped": "low_confidence",
    "addr": {
      "street": null,
      "number": null,
      "osiedle": null,
      "city": "X",
      "district": null,
      "confidence": "medium"
    }
  },
  "68176510": {
    "orig_lat": 52.41708,
    "orig_lon": 16.89549,
    "new_lat": 52.413479,
    "new_lon": 16.902793,
    "dist_m": 637,
    "query": "Jeżyce, Poznań, Polska",
    "formatted": "Jeżyce, Poznań, województwo wielkopolskie, Polska",
    "addr": {
      "street": null,
      "number": null,
      "osiedle": null,
      "city": "Poznań",
      "district": "Jeżyce",
      "confidence": "high"
    },
    "geo_city": "Poznań",
    "geo_district": "Jeżyce",
    "corrected": true
  },
  "67949141": {
    "orig_lat": 52.43993,
    "orig_lon": 17.02575,
    "new_lat": 52.440706,
    "new_lon": 17.028063,
    "dist_m": 179,
    "query": "Asfaltowa, Janikowo, Polska",
    "formatted": "Asfaltowa, Janikowo, gmina Swarzędz, powiat poznański, województwo wielkopolskie, 61-070, Polska",
    "addr": {
      "street": "Asfaltowa",
      "number": null,
      "osiedle": "Osiedle Olchowe Zacisze",
      "city": "Janikowo",
      "district": null,
      "confidence": "high"
    },
    "geo_city": "Janikowo",
    "geo_district": null,
    "corrected": false
  },
  "68196297": {
    "skipped": "low_confidence",
    "addr": {
      "street": null,
      "number": null,
      "osiedle": null,
      "city": "Komorniki",
      "district": null,
      "confidence": "high"
    }
  },
  "68080005": {
    "skipped": "low_confidence",
    "addr": {
      "street": null,
      "number": null,
      "osiedle": null,
      "city": "Rogalinek",
      "district": null,
      "confidence": "high"
    }
  },
  "67970554": {
    "skipped": "low_confidence",
    "addr": {
      "street": null,
      "number": null,
      "osiedle": null,
      "city": "Janikowo",
      "district": null,
      "confidence": "high"
    }
  },
  "68175954": {
    "orig_lat": 52.41706,
    "orig_lon": 16.89563,
    "new_lat": 52.413479,
    "new_lon": 16.902793,
    "dist_m": 628,
    "query": "Jeżyce, Poznań, Polska",
    "formatted": "Jeżyce, Poznań, województwo wielkopolskie, Polska",
    "addr": {
      "street": null,
      "number": null,
      "osiedle": null,
      "city": "Poznań",
      "district": "Jeżyce",
      "confidence": "high"
    },
    "geo_city": "Poznań",
    "geo_district": "Jeżyce",
    "corrected": true
  },
  "68208680": {
    "orig_lat": 52.44377,
    "orig_lon": 16.89437,
    "new_lat": 52.456781,
    "new_lon": 16.887939,
    "dist_m": 1511,
    "query": "Podolany, Poznań, Polska",
    "formatted": "Podolany, Poznań, województwo wielkopolskie, Polska",
    "addr": {
      "street": null,
      "number": null,
      "osiedle": "Podolany",
      "city": "Poznań",
      "district": null,
      "confidence": "high"
    },
    "geo_city": "Poznań",
    "geo_district": "Podolany",
    "corrected": true
  },
  "68208044": {
    "skipped": "low_confidence",
    "addr": {
      "street": null,
      "number": null,
      "osiedle": null,
      "city": "Strzeszyn",
      "district": null,
      "confidence": "high"
    }
  },
  "68021881": {
    "orig_lat": 52.44406,
    "orig_lon": 16.89346,
    "new_lat": 52.443035,
    "new_lon": 16.891833,
    "dist_m": 159,
    "query": "Jasielska 8C, Poznań, Polska",
    "formatted": "8c, Jasielska, Podolany, Poznań, województwo wielkopolskie, 60-476, Polska",
    "addr": {
      "street": "Jasielska",
      "number": "8C",
      "osiedle": null,
      "city": "Poznań",
      "district": "Jeżyce",
      "confidence": "high"
    },
    "geo_city": "Poznań",
    "geo_district": "Podolany",
    "corrected": false
  },
  "68187783": {
    "orig_lat": 52.41708,
    "orig_lon": 16.89549,
    "new_lat": 52.413479,
    "new_lon": 16.902793,
    "dist_m": 637,
    "query": "Jeżyce, Poznań, Polska",
    "formatted": "Jeżyce, Poznań, województwo wielkopolskie, Polska",
    "addr": {
      "street": null,
      "number": null,
      "osiedle": null,
      "city": "Poznań",
      "district": "Jeżyce",
      "confidence": "high"
    },
    "geo_city": "Poznań",
    "geo_district": "Jeżyce",
    "corrected": true
  },
  "67400335": {
    "skipped": "low_confidence",
    "addr": {
      "street": null,
      "number": null,
      "osiedle": null,
      "city": null,
      "district": null,
      "confidence": "low"
    }
  },
  "68189043": {
    "orig_lat": 52.41708,
    "orig_lon": 16.89549,
    "new_lat": 52.413479,
    "new_lon": 16.902793,
    "dist_m": 637,
    "query": "Jeżyce, Poznań, Polska",
    "formatted": "Jeżyce, Poznań, województwo wielkopolskie, Polska",
    "addr": {
      "street": null,
      "number": null,
      "osiedle": null,
      "city": "Poznań",
      "district": "Jeżyce",
      "confidence": "high"
    },
    "geo_city": "Poznań",
    "geo_district": "Jeżyce",
    "corrected": true
  },
  "68223585": {
    "orig_lat": 52.41445,
    "orig_lon": 16.89577,
    "new_lat": 52.413479,
    "new_lon": 16.902793,
    "dist_m": 488,
    "query": "Jeżyce, Poznań, Polska",
    "formatted": "Jeżyce, Poznań, województwo wielkopolskie, Polska",
    "addr": {
      "street": null,
      "number": null,
      "osiedle": null,
      "city": "Poznań",
      "district": "Jeżyce",
      "confidence": "high"
    },
    "geo_city": "Poznań",
    "geo_district": "Jeżyce",
    "corrected": true
  },
  "68061059": {
    "orig_lat": 52.39901,
    "orig_lon": 16.96222,
    "new_lat": 52.396824,
    "new_lon": 16.960993,
    "dist_m": 257,
    "query": "Łacina, Poznań, Polska",
    "formatted": "Łacina, Rataje, Poznań, województwo wielkopolskie, Polska",
    "addr": {
      "street": null,
      "number": null,
      "osiedle": "Łacina",
      "city": "Poznań",
      "district": null,
      "confidence": "high"
    },
    "geo_city": "Poznań",
    "geo_district": "Łacina",
    "corrected": true
  },
  "68179222": {
    "orig_lat": 52.33583,
    "orig_lon": 16.80778,
    "new_lat": 52.337311,
    "new_lon": 16.834927,
    "dist_m": 1852,
    "query": "Cyprysowa 17, Komorniki, Polska",
    "formatted": "Cyprysowa, Komorniki, gmina Komorniki, powiat poznański, województwo wielkopolskie, 60-004, Polska",
    "addr": {
      "street": "Cyprysowa",
      "number": "17",
      "osiedle": null,
      "city": "Komorniki",
      "district": null,
      "confidence": "high"
    },
    "geo_city": "Komorniki",
    "geo_district": null,
    "corrected": true
  },
  "68221223": {
    "orig_lat": 52.39885,
    "orig_lon": 17.11339,
    "new_lat": 52.410373,
    "new_lon": 17.077104,
    "dist_m": 2775,
    "query": "Gerberowa, Swarzędz, Polska",
    "formatted": "Swarzędz, gmina Swarzędz, powiat poznański, województwo wielkopolskie, 62-020, Polska",
    "addr": {
      "street": "Gerberowa",
      "number": null,
      "osiedle": "Gerberowa Park",
      "city": "Swarzędz",
      "district": null,
      "confidence": "high"
    },
    "geo_city": "Swarzędz",
    "geo_district": null,
    "corrected": true
  },
  "68221220": {
    "orig_lat": 52.41702,
    "orig_lon": 17.10156,
    "new_lat": 52.410373,
    "new_lon": 17.077104,
    "dist_m": 1816,
    "query": "Gerberowa, Swarzędz, Polska",
    "formatted": "Swarzędz, gmina Swarzędz, powiat poznański, województwo wielkopolskie, 62-020, Polska",
    "addr": {
      "street": "Gerberowa",
      "number": null,
      "osiedle": "Gerberowa Park",
      "city": "Swarzędz",
      "district": null,
      "confidence": "high"
    },
    "geo_city": "Swarzędz",
    "geo_district": null,
    "corrected": true
  },
  "68196298": {
    "skipped": "low_confidence",
    "addr": {
      "street": null,
      "number": null,
      "osiedle": null,
      "city": "Komorniki",
      "district": null,
      "confidence": "high"
    }
  },
  "67869758": {
    "skipped": "low_confidence",
    "addr": {
      "street": null,
      "number": null,
      "osiedle": null,
      "city": "Gortatów",
      "district": null,
      "confidence": "high"
    }
  },
  "67301253": {
    "skipped": "low_confidence",
    "addr": {
      "street": null,
      "number": null,
      "osiedle": null,
      "city": "Poznań",
      "district": null,
      "confidence": "medium"
    }
  },
  "68163416": {
    "orig_lat": 52.43184,
    "orig_lon": 16.94668,
    "new_lat": 52.434865,
    "new_lon": 16.938353,
    "dist_m": 657,
    "query": "Winogrady, Poznań, Polska",
    "formatted": "Winogrady, Poznań, województwo wielkopolskie, 61-636, Polska",
    "addr": {
      "street": null,
      "number": null,
      "osiedle": null,
      "city": "Poznań",
      "district": "Winogrady",
      "confidence": "high"
    },
    "geo_city": "Poznań",
    "geo_district": "Winogrady",
    "corrected": true
  },
  "66779682": {
    "orig_lat": 52.45461,
    "orig_lon": 17.22294,
    "new_lat": 52.450839,
    "new_lon": 17.245258,
    "dist_m": 1569,
    "query": "Promno Park, Promno, Polska",
    "formatted": "Promno, gmina Pobiedziska, powiat poznański, województwo wielkopolskie, Polska",
    "addr": {
      "street": null,
      "number": null,
      "osiedle": "Promno Park",
      "city": "Promno",
      "district": null,
      "confidence": "high"
    },
    "geo_city": "Promno",
    "geo_district": null,
    "corrected": false,
    "reverted": true
  },
  "68134125": {
    "skipped": "low_confidence",
    "addr": {
      "street": null,
      "number": null,
      "osiedle": null,
      "city": "null",
      "district": null,
      "confidence": "low"
    }
  },
  "68173276": {
    "orig_lat": 52.41895,
    "orig_lon": 16.90111,
    "new_lat": 52.413479,
    "new_lon": 16.902793,
    "dist_m": 619,
    "query": "Jeżyce, Poznań, Polska",
    "formatted": "Jeżyce, Poznań, województwo wielkopolskie, Polska",
    "addr": {
      "street": null,
      "number": null,
      "osiedle": null,
      "city": "Poznań",
      "district": "Jeżyce",
      "confidence": "high"
    },
    "geo_city": "Poznań",
    "geo_district": "Jeżyce",
    "corrected": true
  },
  "68218959": {
    "skipped": "low_confidence",
    "addr": {
      "street": null,
      "number": null,
      "osiedle": null,
      "city": "miasto",
      "district": null,
      "confidence": "medium"
    }
  },
  "67998790": {
    "orig_lat": 52.4176,
    "orig_lon": 16.89492,
    "new_lat": 52.413479,
    "new_lon": 16.902793,
    "dist_m": 704,
    "query": "Jeżyce, Poznań, Polska",
    "formatted": "Jeżyce, Poznań, województwo wielkopolskie, Polska",
    "addr": {
      "street": null,
      "number": null,
      "osiedle": null,
      "city": "Poznań",
      "district": "Jeżyce",
      "confidence": "high"
    },
    "geo_city": "Poznań",
    "geo_district": "Jeżyce",
    "corrected": true
  },
  "68181374": {
    "orig_lat": 52.417,
    "orig_lon": 16.89959,
    "new_lat": 52.413479,
    "new_lon": 16.902793,
    "dist_m": 448,
    "query": "Jeżyce, Poznań, Polska",
    "formatted": "Jeżyce, Poznań, województwo wielkopolskie, Polska",
    "addr": {
      "street": null,
      "number": null,
      "osiedle": null,
      "city": "Poznań",
      "district": "Jeżyce",
      "confidence": "high"
    },
    "geo_city": "Poznań",
    "geo_district": "Jeżyce",
    "corrected": true
  },
  "68133075": {
    "orig_lat": 52.4176,
    "orig_lon": 16.89524,
    "new_lat": 52.413479,
    "new_lon": 16.902793,
    "dist_m": 687,
    "query": "Jeżyce, Poznań, Polska",
    "formatted": "Jeżyce, Poznań, województwo wielkopolskie, Polska",
    "addr": {
      "street": null,
      "number": null,
      "osiedle": null,
      "city": "Poznań",
      "district": "Jeżyce",
      "confidence": "high"
    },
    "geo_city": "Poznań",
    "geo_district": "Jeżyce",
    "corrected": true
  },
  "67694136": {
    "skipped": "low_confidence",
    "addr": {
      "street": null,
      "number": null,
      "osiedle": null,
      "city": "Poznań",
      "district": null,
      "confidence": "medium"
    }
  },
  "68146120": {
    "orig_lat": 52.41683,
    "orig_lon": 16.89983,
    "new_lat": 52.413479,
    "new_lon": 16.902793,
    "dist_m": 423,
    "query": "Jeżyce, Poznań, Polska",
    "formatted": "Jeżyce, Poznań, województwo wielkopolskie, Polska",
    "addr": {
      "street": null,
      "number": null,
      "osiedle": null,
      "city": "Poznań",
      "district": "Jeżyce",
      "confidence": "high"
    },
    "geo_city": "Poznań",
    "geo_district": "Jeżyce",
    "corrected": true
  },
  "67354505": {
    "skipped": "low_confidence",
    "addr": {
      "street": null,
      "number": null,
      "osiedle": null,
      "city": "Kórnik",
      "district": null,
      "confidence": "high"
    }
  },
  "66533710": {
    "skipped": "low_confidence",
    "addr": {
      "street": null,
      "number": null,
      "osiedle": null,
      "city": "Rokietnica",
      "district": null,
      "confidence": "high"
    }
  },
  "68176888": {
    "orig_lat": 52.41706,
    "orig_lon": 16.89563,
    "new_lat": 52.413479,
    "new_lon": 16.902793,
    "dist_m": 628,
    "query": "Jeżyce, Poznań, Polska",
    "formatted": "Jeżyce, Poznań, województwo wielkopolskie, Polska",
    "addr": {
      "street": null,
      "number": null,
      "osiedle": null,
      "city": "Poznań",
      "district": "Jeżyce",
      "confidence": "high"
    },
    "geo_city": "Poznań",
    "geo_district": "Jeżyce",
    "corrected": true
  },
  "68025804": {
    "orig_lat": 52.45718,
    "orig_lon": 16.88339,
    "new_lat": 52.443035,
    "new_lon": 16.891833,
    "dist_m": 1674,
    "query": "Jasielska 8C, Poznań, Polska",
    "formatted": "8c, Jasielska, Podolany, Poznań, województwo wielkopolskie, 60-476, Polska",
    "addr": {
      "street": "Jasielska",
      "number": "8C",
      "osiedle": null,
      "city": "Poznań",
      "district": "Jeżyce",
      "confidence": "high"
    },
    "geo_city": "Poznań",
    "geo_district": "Podolany",
    "corrected": true
  },
  "68128420": {
    "skipped": "low_confidence",
    "addr": {
      "street": null,
      "number": null,
      "osiedle": null,
      "city": "Kobylniki",
      "district": null,
      "confidence": "high"
    }
  },
  "67935382": {
    "orig_lat": 52.34184,
    "orig_lon": 16.72316,
    "new_lat": 52.341008,
    "new_lon": 16.72111,
    "dist_m": 167,
    "query": "Frezjowa, Konarzewo, Polska",
    "formatted": "Frezjowa, Konarzewo, gmina Dopiewo, powiat poznański, województwo wielkopolskie, 62-070, Polska",
    "addr": {
      "street": "Frezjowa",
      "number": null,
      "osiedle": null,
      "city": "Konarzewo",
      "district": null,
      "confidence": "high"
    },
    "geo_city": "Konarzewo",
    "geo_district": null,
    "corrected": false
  },
  "67967929": {
    "orig_lat": 52.37332,
    "orig_lon": 16.95109,
    "new_lat": 52.373298,
    "new_lon": 16.947588,
    "dist_m": 238,
    "query": "Przy Unii 1_71, Poznań, Polska",
    "formatted": "Osiedle Przy Unii Etap II, Starołęka Mała, Starołęka-Minikowo-Marlewo, Poznań, województwo wielkopolskie, Polska",
    "addr": {
      "street": "Przy Unii",
      "number": "1_71",
      "osiedle": "Przy Unii",
      "city": "Poznań",
      "district": null,
      "confidence": "high"
    },
    "geo_city": "Poznań",
    "geo_district": "Starołęka Mała",
    "corrected": true
  },
  "68030613": {
    "orig_lat": 52.45718,
    "orig_lon": 16.88339,
    "new_lat": 52.443035,
    "new_lon": 16.891833,
    "dist_m": 1674,
    "query": "Jasielska 8C, Poznań, Polska",
    "formatted": "8c, Jasielska, Podolany, Poznań, województwo wielkopolskie, 60-476, Polska",
    "addr": {
      "street": "Jasielska",
      "number": "8C",
      "osiedle": null,
      "city": "Poznań",
      "district": "Jeżyce/Podolany",
      "confidence": "high"
    },
    "geo_city": "Poznań",
    "geo_district": "Podolany",
    "corrected": true
  },
  "67967967": {
    "orig_lat": 52.37332,
    "orig_lon": 16.95109,
    "new_lat": 52.373298,
    "new_lon": 16.947588,
    "dist_m": 238,
    "query": "Przy Unii 1_51, Poznań, Polska",
    "formatted": "Osiedle Przy Unii Etap II, Starołęka Mała, Starołęka-Minikowo-Marlewo, Poznań, województwo wielkopolskie, Polska",
    "addr": {
      "street": "Przy Unii",
      "number": "1_51",
      "osiedle": "Przy Unii",
      "city": "Poznań",
      "district": null,
      "confidence": "high"
    },
    "geo_city": "Poznań",
    "geo_district": "Starołęka Mała",
    "corrected": true
  },
  "68158273": {
    "orig_lat": 52.30838,
    "orig_lon": 16.99581,
    "new_lat": 53.779703,
    "new_lon": 15.087998,
    "dist_m": 207426,
    "query": "Malarska, Szczytniki, Polska",
    "formatted": "Szczytniki, gmina Nowogard, powiat goleniowski, województwo zachodniopomorskie, 72-205, Polska",
    "addr": {
      "street": null,
      "number": null,
      "osiedle": "Malarska",
      "city": "Szczytniki",
      "district": null,
      "confidence": "high"
    },
    "geo_city": "Szczytniki",
    "geo_district": null,
    "corrected": false,
    "reverted": true
  },
  "68207406": {
    "orig_lat": 52.40165,
    "orig_lon": 16.85906,
    "new_lat": 52.404197,
    "new_lon": 16.88215,
    "dist_m": 1592,
    "query": "Grunwald, Poznań, Polska",
    "formatted": "Stary Grunwald, Grunwald, Poznań, województwo wielkopolskie, Polska",
    "addr": {
      "street": null,
      "number": null,
      "osiedle": null,
      "city": "Poznań",
      "district": "Grunwald",
      "confidence": "high"
    },
    "geo_city": "Poznań",
    "geo_district": "Grunwald",
    "corrected": true
  },
  "68132068": {
    "skipped": "low_confidence",
    "addr": {
      "street": null,
      "number": null,
      "osiedle": null,
      "city": null,
      "district": null,
      "confidence": "low"
    }
  },
  "68149890": {
    "skipped": "low_confidence",
    "addr": {
      "street": null,
      "number": null,
      "osiedle": null,
      "city": "miasto",
      "district": null,
      "confidence": "medium"
    }
  },
  "68210478": {
    "orig_lat": 52.38953,
    "orig_lon": 16.85972,
    "new_lat": 52.404197,
    "new_lon": 16.88215,
    "dist_m": 2231,
    "query": "Stary Grunwald, Poznań, Polska",
    "formatted": "Stary Grunwald, Grunwald, Poznań, województwo wielkopolskie, Polska",
    "addr": {
      "street": null,
      "number": null,
      "osiedle": "Stary Grunwald",
      "city": "Poznań",
      "district": null,
      "confidence": "high"
    },
    "geo_city": "Poznań",
    "geo_district": "Grunwald",
    "corrected": true
  },
  "68145562": {
    "orig_lat": 52.4366,
    "orig_lon": 16.94887,
    "new_lat": 52.434865,
    "new_lon": 16.938353,
    "dist_m": 739,
    "query": "Winogrady, Poznań, Polska",
    "formatted": "Winogrady, Poznań, województwo wielkopolskie, 61-636, Polska",
    "addr": {
      "street": null,
      "number": null,
      "osiedle": "Winogrady",
      "city": "Poznań",
      "district": null,
      "confidence": "high"
    },
    "geo_city": "Poznań",
    "geo_district": "Winogrady",
    "corrected": true
  },
  "67820100": {
    "orig_lat": 52.47069,
    "orig_lon": 17.02807,
    "new_lat": 52.465348,
    "new_lon": 17.01961,
    "dist_m": 825,
    "query": "Czerwonak, Kicin, Polska",
    "formatted": "Poczta Polska, 2a, Nowe Osiedle, Kicin, gmina Czerwonak, powiat poznański, województwo wielkopolskie, 62-008, Polska",
    "addr": {
      "street": null,
      "number": null,
      "osiedle": null,
      "city": "Kicin",
      "district": "Czerwonak",
      "confidence": "high"
    },
    "geo_city": "Kicin",
    "geo_district": null,
    "corrected": true
  },
  "68052310": {
    "skipped": "low_confidence",
    "addr": {
      "street": null,
      "number": null,
      "osiedle": null,
      "city": "null",
      "district": null,
      "confidence": "low"
    }
  },
  "65120179": {
    "orig_lat": 52.39811,
    "orig_lon": 16.90758,
    "new_lat": 52.398166,
    "new_lon": 16.906942,
    "dist_m": 44,
    "query": "Kolejowa 1, Poznań, Polska",
    "formatted": "1, Kolejowa, Grunwald, Łazarz, Poznań, województwo wielkopolskie, 60-704, Polska",
    "addr": {
      "street": "Kolejowa",
      "number": "1",
      "osiedle": "Kolejova 1",
      "city": "Poznań",
      "district": "Łazarz",
      "confidence": "high"
    },
    "geo_city": "Poznań",
    "geo_district": "Grunwald",
    "corrected": false
  },
  "68140413": {
    "skipped": "low_confidence",
    "addr": {
      "street": null,
      "number": null,
      "osiedle": null,
      "city": "Morasko",
      "district": null,
      "confidence": "high"
    }
  },
  "65698758": {
    "orig_lat": 52.38324,
    "orig_lon": 16.84562,
    "new_lat": 52.382766,
    "new_lon": 16.845838,
    "dist_m": 55,
    "query": "Ziębicka 30, Poznań, Polska",
    "formatted": "30, Ziębicka, Junikowo, Poznań, województwo wielkopolskie, 60-164, Polska",
    "addr": {
      "street": "Ziębicka",
      "number": "30",
      "osiedle": "Ziębicka 30",
      "city": "Poznań",
      "district": null,
      "confidence": "high"
    },
    "geo_city": "Poznań",
    "geo_district": "Junikowo",
    "corrected": false
  },
  "68188810": {
    "orig_lat": 52.41708,
    "orig_lon": 16.89549,
    "new_lat": 52.413479,
    "new_lon": 16.902793,
    "dist_m": 637,
    "query": "Jeżyce, Poznań, Polska",
    "formatted": "Jeżyce, Poznań, województwo wielkopolskie, Polska",
    "addr": {
      "street": null,
      "number": null,
      "osiedle": null,
      "city": "Poznań",
      "district": "Jeżyce",
      "confidence": "high"
    },
    "geo_city": "Poznań",
    "geo_district": "Jeżyce",
    "corrected": true
  },
  "68133985": {
    "skipped": "low_confidence",
    "addr": {
      "street": null,
      "number": null,
      "osiedle": null,
      "city": null,
      "district": null,
      "confidence": "low"
    }
  },
  "68175890": {
    "orig_lat": 52.41706,
    "orig_lon": 16.89563,
    "new_lat": 52.413479,
    "new_lon": 16.902793,
    "dist_m": 628,
    "query": "Jeżyce, Poznań, Polska",
    "formatted": "Jeżyce, Poznań, województwo wielkopolskie, Polska",
    "addr": {
      "street": null,
      "number": null,
      "osiedle": null,
      "city": "Poznań",
      "district": "Jeżyce",
      "confidence": "high"
    },
    "geo_city": "Poznań",
    "geo_district": "Jeżyce",
    "corrected": true
  },
  "67543270": {
    "orig_lat": 52.35819,
    "orig_lon": 16.92382,
    "new_lat": 52.366435,
    "new_lon": 16.944098,
    "dist_m": 1654,
    "query": "Starołęka, Poznań, Polska",
    "formatted": "Starołęka, Starołęka Mała, Starołęka-Minikowo-Marlewo, Poznań, województwo wielkopolskie, 61-357, Polska",
    "addr": {
      "street": null,
      "number": null,
      "osiedle": null,
      "city": "Poznań",
      "district": "Starołęka",
      "confidence": "high"
    },
    "geo_city": "Poznań",
    "geo_district": "Starołęka Mała",
    "corrected": true
  },
  "96754327000067": {
    "orig_lat": 52.35819,
    "orig_lon": 16.92382,
    "new_lat": 52.366435,
    "new_lon": 16.944098,
    "dist_m": 1654,
    "query": "Starołęka, Poznań, Polska",
    "formatted": "Starołęka, Starołęka Mała, Starołęka-Minikowo-Marlewo, Poznań, województwo wielkopolskie, 61-357, Polska",
    "addr": {
      "street": null,
      "number": null,
      "osiedle": null,
      "city": "Poznań",
      "district": "Starołęka",
      "confidence": "high"
    },
    "geo_city": "Poznań",
    "geo_district": "Starołęka Mała",
    "corrected": true
  },
  "68135844": {
    "skipped": "low_confidence",
    "addr": {
      "street": null,
      "number": null,
      "osiedle": null,
      "city": null,
      "district": null,
      "confidence": "low"
    }
  },
  "68218997": {
    "skipped": "low_confidence",
    "addr": {
      "street": null,
      "number": null,
      "osiedle": null,
      "city": "Poznań",
      "district": null,
      "confidence": "medium"
    }
  },
  "68102799": {
    "orig_lat": 52.39595,
    "orig_lon": 16.92411,
    "new_lat": 52.389793,
    "new_lon": 16.924329,
    "dist_m": 685,
    "query": "Dolna Wilda, Poznań, Polska",
    "formatted": "Dolna Wilda, Wilda, Poznań, województwo wielkopolskie, 61-501, Polska",
    "addr": {
      "street": "Dolna Wilda",
      "number": null,
      "osiedle": "Dolna Górna Wilda",
      "city": "Poznań",
      "district": "Wilda",
      "confidence": "high"
    },
    "geo_city": "Poznań",
    "geo_district": "Wilda",
    "corrected": true
  },
  "67970666": {
    "skipped": "low_confidence",
    "addr": {
      "street": null,
      "number": null,
      "osiedle": null,
      "city": "Janikowo",
      "district": null,
      "confidence": "high"
    }
  },
  "67078753": {
    "orig_lat": 52.44089,
    "orig_lon": 17.02883,
    "new_lat": 52.440581,
    "new_lon": 17.025066,
    "dist_m": 257,
    "query": "Olchowe Zacisze, Janikowo, Polska",
    "formatted": "Olchowe Zacisze, Janikowo, gmina Swarzędz, powiat poznański, województwo wielkopolskie, 61-070, Polska",
    "addr": {
      "street": null,
      "number": null,
      "osiedle": "Olchowe Zacisze",
      "city": "Janikowo",
      "district": "Swarzędz",
      "confidence": "high"
    },
    "geo_city": "Janikowo",
    "geo_district": null,
    "corrected": true
  },
  "65698751": {
    "orig_lat": 52.38324,
    "orig_lon": 16.84562,
    "new_lat": 52.382766,
    "new_lon": 16.845838,
    "dist_m": 55,
    "query": "Ziębicka 30, Poznań, Polska",
    "formatted": "30, Ziębicka, Junikowo, Poznań, województwo wielkopolskie, 60-164, Polska",
    "addr": {
      "street": "Ziębicka",
      "number": "30",
      "osiedle": "Ziębicka 30",
      "city": "Poznań",
      "district": null,
      "confidence": "high"
    },
    "geo_city": "Poznań",
    "geo_district": "Junikowo",
    "corrected": false
  },