{
  "66463917": {
    "orig_lat": 52.3993,
    "orig_lon": 16.92926,
    "new_lat": 52.399142,
    "new_lon": 16.92925,
    "dist_m": 18,
    "query": "ul. Królowej Jadwigi 51, Poznań, Polska",
    "formatted": "Królowej Jadwigi 51, 61-872 Poznań, Polska",
    "addr": {
      "street": "ul. Królowej Jadwigi 51",
      "osiedle": "Inwestycja Królowej Jadwigi 51",
      "city": "Poznań",
      "district": "Stare Miasto",
      "confidence": "high"
    },
    "geo_city": "Poznań",
    "geo_district": null,
    "corrected": false
  },
  "66325056": {
    "orig_lat": 52.37413,
    "orig_lon": 16.95236,
    "new_lat": 52.374063,
    "new_lon": 16.952383,
    "dist_m": 8,
    "query": "ul. Unii Lubelskiej 4, Starołęka, Polska",
    "formatted": "Unii Lubelskiej 4, 61-249 Poznań, Polska",
    "addr": {
      "street": "ul. Unii Lubelskiej 4",
      "osiedle": "Inwestycja Unii Lubelskiej 4",
      "city": "Starołęka",
      "district": null,
      "confidence": "high"
    },
    "geo_city": "Poznań",
    "geo_district": null,
    "corrected": false
  },
  "67528674": {
    "orig_lat": 52.40903,
    "orig_lon": 16.9041,
    "new_lat": 52.408314,
    "new_lon": 16.907432,
    "dist_m": 240,
    "query": "ul. Gajowej, Poznań, Polska",
    "formatted": "Gajowa, 61-001 Poznań, Polska",
    "addr": {
      "street": "ul. Gajowej",
      "osiedle": "Zajezdnia",
      "city": "Poznań",
      "district": "Jeżyce",
      "confidence": "high"
    },
    "geo_city": "Poznań",
    "geo_district": null,
    "corrected": true
  },
  "67778161": {
    "orig_lat": 52.41717,
    "orig_lon": 16.94397,
    "new_lat": 52.408289,
    "new_lon": 16.938055,
    "dist_m": 1066,
    "query": "Elektrovnia Garbary, Poznań, Polska",
    "formatted": "Garbary, 61-001 Poznań, Polska",
    "addr": {
      "street": null,
      "osiedle": "Elektrovnia Garbary",
      "city": "Poznań",
      "district": null,
      "confidence": "high"
    },
    "geo_city": "Poznań",
    "geo_district": null,
    "corrected": true
  },
  "67243186": {
    "orig_lat": 52.39885,
    "orig_lon": 16.91957,
    "new_lat": 52.398908,
    "new_lon": 16.919254,
    "dist_m": 22,
    "query": "Vilda Arte, Poznań, Polska",
    "formatted": "Mieczysława Niedziałkowskiego 11, 61-579 Poznań, Polska",
    "addr": {
      "street": null,
      "osiedle": "Vilda Arte",
      "city": "Poznań",
      "district": "Wilda",
      "confidence": "high"
    },
    "geo_city": "Poznań",
    "geo_district": null,
    "corrected": false
  },
  "66707048": {
    "orig_lat": 52.38921,
    "orig_lon": 16.85909,
    "new_lat": 52.388959,
    "new_lon": 16.858891,
    "dist_m": 31,
    "query": "ul. Smardzewska 8, Poznań, Polska",
    "formatted": "Smardzewska 8, 60-161 Poznań, Polska",
    "addr": {
      "street": "ul. Smardzewska 8",
      "osiedle": null,
      "city": "Poznań",
      "district": "Stary Grunwald",
      "confidence": "high"
    },
    "geo_city": "Poznań",
    "geo_district": null,
    "corrected": false
  },
  "67814447": {
    "orig_lat": 52.40216,
    "orig_lon": 16.85464,
    "new_lat": 52.402188,
    "new_lon": 16.854707,
    "dist_m": 6,
    "query": "Ptasia Vita, Poznań, Polska",
    "formatted": "Ptasia 32, 61-001 Poznań, Polska",
    "addr": {
      "street": null,
      "osiedle": "Ptasia Vita",
      "city": "Poznań",
      "district": "Grunwald",
      "confidence": "high"
    },
    "geo_city": "Poznań",
    "geo_district": null,
    "corrected": false
  },
  "67646835": {
    "orig_lat": 52.3993,
    "orig_lon": 16.92926,
    "new_lat": 52.399142,
    "new_lon": 16.92925,
    "dist_m": 18,
    "query": "ul. Królowej Jadwigi 51, Poznań, Polska",
    "formatted": "Królowej Jadwigi 51, 61-872 Poznań, Polska",
    "addr": {
      "street": "ul. Królowej Jadwigi 51",
      "osiedle": "Inwestycja Królowej Jadwigi 51",
      "city": "Poznań",
      "district": "Stare Miasto",
      "confidence": "high"
    },
    "geo_city": "Poznań",
    "geo_district": null,
    "corrected": false
  },
  "67456647": {
    "orig_lat": 52.40216,
    "orig_lon": 16.85464,
    "new_lat": 52.400321,
    "new_lon": 16.858324,
    "dist_m": 323,
    "query": "ul. Ptasiej, Poznań, Polska",
    "formatted": "Ptasia, 61-001 Poznań, Polska",
    "addr": {
      "street": "ul. Ptasiej",
      "osiedle": "Ptasia Vita",
      "city": "Poznań",
      "district": "Grunwald",
      "confidence": "high"
    },
    "geo_city": "Poznań",
    "geo_district": null,
    "corrected": true
  },
  "67232747": {
    "orig_lat": 52.39885,
    "orig_lon": 16.91957,
    "new_lat": 52.398908,
    "new_lon": 16.919254,
    "dist_m": 22,
    "query": "Vilda Arte, Poznań, Polska",
    "formatted": "Mieczysława Niedziałkowskiego 11, 61-579 Poznań, Polska",
    "addr": {
      "street": null,
      "osiedle": "Vilda Arte",
      "city": "Poznań",
      "district": "Wilda",
      "confidence": "high"
    },
    "geo_city": "Poznań",
    "geo_district": null,
    "corrected": false
  },
  "66707097": {
    "orig_lat": 52.38921,
    "orig_lon": 16.85909,
    "new_lat": 52.388959,
    "new_lon": 16.858891,
    "dist_m": 31,
    "query": "ul. Smardzewska 8, Poznań, Polska",
    "formatted": "Smardzewska 8, 60-161 Poznań, Polska",
    "addr": {
      "street": "ul. Smardzewska 8",
      "osiedle": "Smardzewska 8",
      "city": "Poznań",
      "district": "Stary Grunwald",
      "confidence": "high"
    },
    "geo_city": "Poznań",
    "geo_district": null,
    "corrected": false
  },
  "66293561": {
    "orig_lat": 52.36733,
    "orig_lon": 16.90355,
    "new_lat": 52.376392,
    "new_lon": 16.906422,
    "dist_m": 1026,
    "query": "ul. 28 czerwca 1956 r., Poznań, Polska",
    "formatted": "28 Czerwca 1956 r., 61-001 Poznań, Polska",
    "addr": {
      "street": "ul. 28 czerwca 1956 r.",
      "osiedle": "Osiedle 28 Czerwca 1956 r.",
      "city": "Poznań",
      "district": "Wilda",
      "confidence": "high"
    },
    "geo_city": "Poznań",
    "geo_district": null,
    "corrected": true
  },
  "66707030": {
    "orig_lat": 52.38921,
    "orig_lon": 16.85909,
    "new_lat": 52.388959,
    "new_lon": 16.858891,
    "dist_m": 31,
    "query": "ul. Smardzewska 8, Poznań, Polska",
    "formatted": "Smardzewska 8, 60-161 Poznań, Polska",
    "addr": {
      "street": "ul. Smardzewska 8",
      "osiedle": "Smardzewska 8",
      "city": "Poznań",
      "district": "Stary Grunwald",
      "confidence": "high"
    },
    "geo_city": "Poznań",
    "geo_district": null,
    "corrected": false
  },
  "67402612": {
    "orig_lat": 52.40903,
    "orig_lon": 16.9041,
    "new_lat": 52.408314,
    "new_lon": 16.907432,
    "dist_m": 240,
    "query": "ul. Gajowej, Poznań, Polska",
    "formatted": "Gajowa, 61-001 Poznań, Polska",
    "addr": {
      "street": "ul. Gajowej",
      "osiedle": "Zajezdnia",
      "city": "Poznań",
      "district": "Jeżyce",
      "confidence": "high"
    },
    "geo_city": "Poznań",
    "geo_district": null,
    "corrected": true
  },
  "66324918": {
    "orig_lat": 52.37413,
    "orig_lon": 16.95236,
    "new_lat": 52.374063,
    "new_lon": 16.952383,
    "dist_m": 8,
    "query": "ul. Unii Lubelskiej 4, Starołęka, Polska",
    "formatted": "Unii Lubelskiej 4, 61-249 Poznań, Polska",
    "addr": {
      "street": "ul. Unii Lubelskiej 4",
      "osiedle": "Inwestycja Unii Lubelskiej 4",
      "city": "Starołęka",
      "district": null,
      "confidence": "high"
    },
    "geo_city": "Poznań",
    "geo_district": null,
    "corrected": false
  },
  "67951944": {
    "orig_lat": 52.4457,
    "orig_lon": 16.9119,
    "new_lat": 52.445014,
    "new_lon": 16.911521,
    "dist_m": 80,
    "query": "ul. Wojciechowskiego 7/17, Poznań, Polska",
    "formatted": "Wojciechowskiego 7/17, 60-685 Poznań, Polska",
    "addr": {
      "street": "ul. Wojciechowskiego 7/17",
      "osiedle": "Piątkowo Residence",
      "city": "Poznań",
      "district": null,
      "confidence": "high"
    },
    "geo_city": "Poznań",
    "geo_district": null,
    "corrected": false
  },
  "67778158": {
    "orig_lat": 52.41717,
    "orig_lon": 16.94397,
    "new_lat": 52.408289,
    "new_lon": 16.938055,
    "dist_m": 1066,
    "query": "Elektrovnia Garbary, Poznań, Polska",
    "formatted": "Garbary, 61-001 Poznań, Polska",
    "addr": {
      "street": null,
      "osiedle": "Elektrovnia Garbary",
      "city": "Poznań",
      "district": null,
      "confidence": "high"
    },
    "geo_city": "Poznań",
    "geo_district": null,
    "corrected": true
  },
  "67646785": {
    "orig_lat": 52.3993,
    "orig_lon": 16.92926,
    "new_lat": 52.399142,
    "new_lon": 16.92925,
    "dist_m": 18,
    "query": "ul. Królowej Jadwigi 51, Poznań, Polska",
    "formatted": "Królowej Jadwigi 51, 61-872 Poznań, Polska",
    "addr": {
      "street": "ul. Królowej Jadwigi 51",
      "osiedle": "Inwestycja Królowej Jadwigi 51",
      "city": "Poznań",
      "district": "Stare Miasto",
      "confidence": "high"
    },
    "geo_city": "Poznań",
    "geo_district": null,
    "corrected": false
  },
  "67422232": {
    "orig_lat": 52.40216,
    "orig_lon": 16.85464,
    "new_lat": 52.402188,
    "new_lon": 16.854707,
    "dist_m": 6,
    "query": "Ptasia Vita, Poznań, Polska",
    "formatted": "Ptasia 32, 61-001 Poznań, Polska",
    "addr": {
      "street": null,
      "osiedle": "Ptasia Vita",
      "city": "Poznań",
      "district": "Grunwald",
      "confidence": "high"
    },
    "geo_city": "Poznań",
    "geo_district": null,
    "corrected": false
  },
  "67402621": {
    "orig_lat": 52.40903,
    "orig_lon": 16.9041,
    "new_lat": 52.408314,
    "new_lon": 16.907432,
    "dist_m": 240,
    "query": "ul. Gajowej, Poznań, Polska",
    "formatted": "Gajowa, 61-001 Poznań, Polska",
    "addr": {
      "street": "ul. Gajowej",
      "osiedle": "Zajezdnia",
      "city": "Poznań",
      "district": "Jeżyce",
      "confidence": "high"
    },
    "geo_city": "Poznań",
    "geo_district": null,
    "corrected": true
  },
  "66324963": {
    "orig_lat": 52.37413,
    "orig_lon": 16.95236,
    "new_lat": 52.374063,
    "new_lon": 16.952383,
    "dist_m": 8,
    "query": "ul. Unii Lubelskiej 4, Starołęka, Polska",
    "formatted": "Unii Lubelskiej 4, 61-249 Poznań, Polska",
    "addr": {
      "street": "ul. Unii Lubelskiej 4",
      "osiedle": "Inwestycja Unii Lubelskiej 4",
      "city": "Starołęka",
      "district": null,
      "confidence": "high"
    },
    "geo_city": "Poznań",
    "geo_district": null,
    "corrected": false
  },
  "66707105": {
    "orig_lat": 52.38921,
    "orig_lon": 16.85909,
    "new_lat": 52.388959,
    "new_lon": 16.858891,
    "dist_m": 31,
    "query": "ul. Smardzewska 8, Poznań, Polska",
    "formatted": "Smardzewska 8, 60-161 Poznań, Polska",
    "addr": {
      "street": "ul. Smardzewska 8",
      "osiedle": null,
      "city": "Poznań",
      "district": "Stary Grunwald",
      "confidence": "high"
    },
    "geo_city": "Poznań",
    "geo_district": null,
    "corrected": false
  },
  "67646850": {
    "orig_lat": 52.3993,
    "orig_lon": 16.92926,
    "new_lat": 52.399142,
    "new_lon": 16.92925,
    "dist_m": 18,
    "query": "ul. Królowej Jadwigi 51, Poznań, Polska",
    "formatted": "Królowej Jadwigi 51, 61-872 Poznań, Polska",
    "addr": {
      "street": "ul. Królowej Jadwigi 51",
      "osiedle": "Inwestycja Królowej Jadwigi 51",
      "city": "Poznań",
      "district": "Stare Miasto",
      "confidence": "high"
    },
    "geo_city": "Poznań",
    "geo_district": null,
    "corrected": false
  },
  "66293361": {
    "orig_lat": 52.36733,
    "orig_lon": 16.90355,
    "new_lat": 52.376392,
    "new_lon": 16.906422,
    "dist_m": 1026,
    "query": "ul. 28 czerwca 1956 r., Poznań, Polska",
    "formatted": "28 Czerwca 1956 r., 61-001 Poznań, Polska",
    "addr": {
      "street": "ul. 28 czerwca 1956 r.",
      "osiedle": "Osiedle 28 Czerwca 1956 r.",
      "city": "Poznań",
      "district": "Wilda",
      "confidence": "high"
    },
    "geo_city": "Poznań",
    "geo_district": null,
    "corrected": true
  },
  "66325058": {
    "orig_lat": 52.37413,
    "orig_lon": 16.95236,
    "new_lat": 52.374063,
    "new_lon": 16.952383,
    "dist_m": 8,
    "query": "ul. Unii Lubelskiej 4, Starołęka, Polska",
    "formatted": "Unii Lubelskiej 4, 61-249 Poznań, Polska",
    "addr": {
      "street": "ul. Unii Lubelskiej 4",
      "osiedle": "Inwestycja Unii Lubelskiej 4",
      "city": "Starołęka",
      "district": null,
      "confidence": "high"
    },
    "geo_city": "Poznań",
    "geo_district": null,
    "corrected": false
  },
  "66707014": {
    "orig_lat": 52.38921,
    "orig_lon": 16.85909,
    "new_lat": 52.388959,
    "new_lon": 16.858891,
    "dist_m": 31,
    "query": "ul. Smardzewska 8, Poznań, Polska",
    "formatted": "Smardzewska 8, 60-161 Poznań, Polska",
    "addr": {
      "street": "ul. Smardzewska 8",
      "osiedle": "Smardzewska 8",
      "city": "Poznań",
      "district": "Stary Grunwald",
      "confidence": "high"
    },
    "geo_city": "Poznań",
    "geo_district": null,
    "corrected": false
  },
  "67951920": {
    "orig_lat": 52.4457,
    "orig_lon": 16.9119,
    "new_lat": 52.445014,
    "new_lon": 16.911521,
    "dist_m": 80,
    "query": "ul. Wojciechowskiego 7/17, Poznań, Polska",
    "formatted": "Wojciechowskiego 7/17, 60-685 Poznań, Polska",
    "addr": {
      "street": "ul. Wojciechowskiego 7/17",
      "osiedle": "Piątkowo Residence",
      "city": "Poznań",
      "district": null,
      "confidence": "high"
    },
    "geo_city": "Poznań",
    "geo_district": null,
    "corrected": false
  },
  "67232737": {
    "orig_lat": 52.39885,
    "orig_lon": 16.91957,
    "new_lat": 52.398908,
    "new_lon": 16.919254,
    "dist_m": 22,
    "query": "Vilda Arte, Poznań, Polska",
    "formatted": "Mieczysława Niedziałkowskiego 11, 61-579 Poznań, Polska",
    "addr": {
      "street": null,
      "osiedle": "Vilda Arte",
      "city": "Poznań",
      "district": "Wilda",
      "confidence": "high"
    },
    "geo_city": "Poznań",
    "geo_district": null,
    "corrected": false
  },
  "67778136": {
    "orig_lat": 52.41717,
    "orig_lon": 16.94397,
    "new_lat": 52.408289,
    "new_lon": 16.938055,
    "dist_m": 1066,
    "query": "Elektrovnia Garbary, Poznań, Polska",
    "formatted": "Garbary, 61-001 Poznań, Polska",
    "addr": {
      "street": null,
      "osiedle": "Elektrovnia Garbary",
      "city": "Poznań",
      "district": null,
      "confidence": "high"
    },
    "geo_city": "Poznań",
    "geo_district": null,
    "corrected": true
  },
  "68092591": {
    "orig_lat": 52.41717,
    "orig_lon": 16.94397,
    "new_lat": 52.408289,
    "new_lon": 16.938055,
    "dist_m": 1066,
    "query": "Elektrovnia Garbary, Poznań, Polska",
    "formatted": "Garbary, 61-001 Poznań, Polska",
    "addr": {
      "street": null,
      "osiedle": "Elektrovnia Garbary",
      "city": "Poznań",
      "district": null,
      "confidence": "high"
    },
    "geo_city": "Poznań",
    "geo_district": null,
    "corrected": true
  },
  "67778112": {
    "orig_lat": 52.41717,
    "orig_lon": 16.94397,
    "new_lat": 52.408289,
    "new_lon": 16.938055,
    "dist_m": 1066,
    "query": "Elektrovnia Garbary, Poznań, Polska",
    "formatted": "Garbary, 61-001 Poznań, Polska",
    "addr": {
      "street": null,
      "osiedle": "Elektrovnia Garbary",
      "city": "Poznań",
      "district": null,
      "confidence": "high"
    },
    "geo_city": "Poznań",
    "geo_district": null,
    "corrected": true
  },
  "66706981": {
    "orig_lat": 52.38921,
    "orig_lon": 16.85909,
    "new_lat": 52.388959,
    "new_lon": 16.858891,
    "dist_m": 31,
    "query": "ul. Smardzewska 8, Poznań, Polska",
    "formatted": "Smardzewska 8, 60-161 Poznań, Polska",
    "addr": {
      "street": "ul. Smardzewska 8",
      "osiedle": "Smardzewska 8",
      "city": "Poznań",
      "district": "Stary Grunwald",
      "confidence": "high"
    },
    "geo_city": "Poznań",
    "geo_district": null,
    "corrected": false
  },
  "67465463": {
    "orig_lat": 52.40216,
    "orig_lon": 16.85464,
    "new_lat": 52.402188,
    "new_lon": 16.854707,
    "dist_m": 6,
    "query": "Ptasia Vita, Poznań, Polska",
    "formatted": "Ptasia 32, 61-001 Poznań, Polska",
    "addr": {
      "street": null,
      "osiedle": "Ptasia Vita",
      "city": "Poznań",
      "district": "Grunwald",
      "confidence": "high"
    },
    "geo_city": "Poznań",
    "geo_district": null,
    "corrected": false
  },
  "67814415": {
    "orig_lat": 52.40216,
    "orig_lon": 16.85464,
    "new_lat": 52.402188,
    "new_lon": 16.854707,
    "dist_m": 6,
    "query": "Ptasia Vita, Poznań, Polska",
    "formatted": "Ptasia 32, 61-001 Poznań, Polska",
    "addr": {
      "street": null,
      "osiedle": "Ptasia Vita",
      "city": "Poznań",
      "district": "Grunwald",
      "confidence": "high"
    },
    "geo_city": "Poznań",
    "geo_district": null,
    "corrected": false
  },
  "67717244": {
    "skipped": "geocode_too_vague",
    "query": "Junique II, Grunwald, Polska",
    "formatted": "Grunwald, Polska",
    "addr": {
      "street": null,
      "osiedle": "Junique II",
      "city": "Grunwald",
      "district": null,
      "confidence": "high"
    }
  },
  "67076985": {
    "skipped": "geocode_too_vague",
    "query": "ul. Folwark, Jankowice, Polska",
    "formatted": "Jankowice, Polska",
    "addr": {
      "street": "ul. Folwark",
      "osiedle": "Folwark Jankowice",
      "city": "Jankowice",
      "district": null,
      "confidence": "high"
    }
  },
  "68174861": {
    "skipped": "low_confidence",
    "addr": {
      "street": null,
      "osiedle": null,
      "city": "Kamionki",
      "district": null,
      "confidence": "high"
    }
  },
  "67599144": {
    "skipped": "low_confidence",
    "addr": {
      "street": null,
      "osiedle": null,
      "city": "Pobiedziska",
      "district": null,
      "confidence": "high"
    }
  },
  "68048191": {
    "skipped": "low_confidence",
    "addr": {
      "street": null,
      "osiedle": null,
      "city": "wioska",
      "district": null,
      "confidence": "high"
    }
  },
  "68221181": {
    "orig_lat": 52.4353,
    "orig_lon": 17.06231,
    "new_lat": 52.43639,
    "new_lon": 17.06128,
    "dist_m": 140,
    "query": "Ostoja Gruszczyn, Gruszczyn, Polska",
    "formatted": "Noskowskiego, 62-006 Gruszczyn, Polska",
    "addr": {
      "street": null,
      "osiedle": "Ostoja Gruszczyn",
      "city": "Gruszczyn",
      "district": null,
      "confidence": "high"
    },
    "geo_city": "Gruszczyn",
    "geo_district": null,
    "corrected": false
  },
  "67180896": {
    "orig_lat": 52.207,
    "orig_lon": 17.02705,
    "new_lat": 52.20982,
    "new_lon": 17.032657,
    "dist_m": 494,
    "query": "ul. Kowalska, Radzewo, Polska",
    "formatted": "Kowalska, 62-035 Radzewo, Polska",
    "addr": {
      "street": "ul. Kowalska",
      "osiedle": null,
      "city": "Radzewo",
      "district": null,
      "confidence": "high"
    },
    "geo_city": "Radzewo",
    "geo_district": null,
    "corrected": true
  },
  "68221216": {
    "orig_lat": 52.42999,
    "orig_lon": 17.07322,
    "new_lat": 52.43639,
    "new_lon": 17.06128,
    "dist_m": 1078,
    "query": "Ostoja Gruszczyn, Gruszczyn, Polska",
    "formatted": "Noskowskiego, 62-006 Gruszczyn, Polska",
    "addr": {
      "street": null,
      "osiedle": "Ostoja Gruszczyn",
      "city": "Gruszczyn",
      "district": null,
      "confidence": "high"
    },
    "geo_city": "Gruszczyn",
    "geo_district": null,
    "corrected": true
  },
  "68221182": {
    "orig_lat": 52.4353,
    "orig_lon": 17.06231,
    "new_lat": 52.43639,
    "new_lon": 17.06128,
    "dist_m": 140,
    "query": "Ostoja Gruszczyn, Gruszczyn, Polska",
    "formatted": "Noskowskiego, 62-006 Gruszczyn, Polska",
    "addr": {
      "street": null,
      "osiedle": "Ostoja Gruszczyn",
      "city": "Gruszczyn",
      "district": null,
      "confidence": "high"
    },
    "geo_city": "Gruszczyn",
    "geo_district": null,
    "corrected": false
  },
  "67298951": {
    "skipped": "low_confidence",
    "addr": {
      "street": null,
      "osiedle": null,
      "city": "nowoczesne osiedle",
      "district": null,
      "confidence": "medium"
    }
  },
  "67955931": {
    "skipped": "low_confidence",
    "addr": {
      "street": null,
      "osiedle": null,
      "city": "Gowarzewo",
      "district": null,
      "confidence": "high"
    }
  },
  "66732188": {
    "orig_lat": 52.29766,
    "orig_lon": 17.08489,
    "new_lat": 52.299496,
    "new_lon": 17.08692,
    "dist_m": 246,
    "query": "ul. Turkusowa, Dachowa, Polska",
    "formatted": "Turkusowa, 62-023 Dachowa, Polska",
    "addr": {
      "street": "ul. Turkusowa",
      "osiedle": null,
      "city": "Dachowa",
      "district": null,
      "confidence": "high"
    },
    "geo_city": "Dachowa",
    "geo_district": null,
    "corrected": true
  },
  "68195763": {
    "skipped": "low_confidence",
    "addr": {
      "street": null,
      "osiedle": null,
      "city": "Dachowa",
      "district": null,
      "confidence": "high"
    }
  },
  "66615198": {
    "skipped": "low_confidence",
    "addr": {
      "street": null,
      "osiedle": null,
      "city": "Ceradz Dolny",
      "district": null,
      "confidence": "high"
    }
  },
  "66615357": {
    "skipped": "low_confidence",
    "addr": {
      "street": null,
      "osiedle": null,
      "city": "Ceradz Dolny",
      "district": null,
      "confidence": "high"
    }
  },
  "68116767": {
    "skipped": "low_confidence",
    "addr": {
      "street": null,
      "osiedle": null,
      "city": "Pamiątkowo",
      "district": null,
      "confidence": "high"
    }
  },
  "96811676700067": {
    "skipped": "low_confidence",
    "addr": {
      "street": null,
      "osiedle": null,
      "city": "Pamiątkowo",
      "district": null,
      "confidence": "high"
    }
  },
  "68179709": {
    "skipped": "low_confidence",
    "addr": {
      "street": null,
      "osiedle": null,
      "city": "Daszewice",
      "district": null,
      "confidence": "high"
    }
  },
  "68154472": {
    "skipped": "low_confidence",
    "addr": {
      "street": null,
      "osiedle": null,
      "city": "Pamiątkowo",
      "district": null,
      "confidence": "high"
    }
  },
  "67355049": {
    "skipped": "low_confidence",
    "addr": {
      "street": null,
      "osiedle": null,
      "city": "Trzek",
      "district": null,
      "confidence": "high"
    }
  },
  "68224844": {
    "skipped": "low_confidence",
    "addr": {
      "street": null,
      "osiedle": null,
      "city": "Karolewo",
      "district": null,
      "confidence": "high"
    }
  },
  "68221231": {
    "orig_lat": 52.435,
    "orig_lon": 17.06266,
    "new_lat": 52.43639,
    "new_lon": 17.06128,
    "dist_m": 181,
    "query": "Ostoja Gruszczyn, Gruszczyn, Polska",
    "formatted": "Noskowskiego, 62-006 Gruszczyn, Polska",
    "addr": {
      "street": null,
      "osiedle": "Ostoja Gruszczyn",
      "city": "Gruszczyn",
      "district": null,
      "confidence": "high"
    },
    "geo_city": "Gruszczyn",
    "geo_district": null,
    "corrected": false
  },
  "67135916": {
    "orig_lat": 52.54238,
    "orig_lon": 16.94762,
    "new_lat": 52.535281,
    "new_lon": 16.947006,
    "dist_m": 790,
    "query": "ul. Jesionowa, Biedrusko, Polska",
    "formatted": "Jesionowa, Biedrusko, Polska",
    "addr": {
      "street": "ul. Jesionowa",
      "osiedle": "Biedrusko Osiedle Jesionowe",
      "city": "Biedrusko",
      "district": null,
      "confidence": "high"
    },
    "geo_city": "Biedrusko",
    "geo_district": null,
    "corrected": true
  },
  "67978013": {
    "skipped": "geocode_too_vague",
    "query": "gm. Buk, Otusz, Polska",
    "formatted": "Otusz, Polska",
    "addr": {
      "street": null,
      "osiedle": null,
      "city": "Otusz",
      "district": "gm. Buk",
      "confidence": "high"
    }
  },
  "67135922": {
    "orig_lat": 52.54238,
    "orig_lon": 16.94762,
    "new_lat": 52.535281,
    "new_lon": 16.947006,
    "dist_m": 790,
    "query": "ul. Jesionowa, Biedrusko, Polska",
    "formatted": "Jesionowa, Biedrusko, Polska",
    "addr": {
      "street": "ul. Jesionowa",
      "osiedle": "Biedrusko Osiedle Jesionowe",
      "city": "Biedrusko",
      "district": null,
      "confidence": "high"
    },
    "geo_city": "Biedrusko",
    "geo_district": null,
    "corrected": true
  },
  "68195754": {
    "skipped": "low_confidence",
    "addr": {
      "street": null,
      "osiedle": null,
      "city": "Siekierki Wielkie",
      "district": null,
      "confidence": "high"
    }
  },
  "67135917": {
    "orig_lat": 52.54238,
    "orig_lon": 16.94762,
    "new_lat": 52.535281,
    "new_lon": 16.947006,
    "dist_m": 790,
    "query": "ul. Jesionowa, Biedrusko, Polska",
    "formatted": "Jesionowa, Biedrusko, Polska",
    "addr": {
      "street": "ul. Jesionowa",
      "osiedle": "Biedrusko Osiedle Jesionowe",
      "city": "Biedrusko",
      "district": null,
      "confidence": "high"
    },
    "geo_city": "Biedrusko",
    "geo_district": null,
    "corrected": true
  },
  "68188877": {
    "skipped": "low_confidence",
    "addr": {
      "street": null,
      "osiedle": null,
      "city": "Biedrusko",
      "district": null,
      "confidence": "high"
    }
  },
  "68187443": {
    "skipped": "geocode_too_vague",
    "query": "nową inwestycją w Siekierkach Wielkich, Siekierki Wielkie, Polska",
    "formatted": "62-025 Siekierki Wielkie, Polska",
    "addr": {
      "street": null,
      "osiedle": "nową inwestycją w Siekierkach Wielkich",
      "city": "Siekierki Wielkie",
      "district": null,
      "confidence": "high"
    }
  },
  "68183348": {
    "skipped": "geocode_too_vague",
    "query": "ul. Szafirowa, Siekierki Wielkie, Polska",
    "formatted": "62-025 Siekierki Wielkie, Polska",
    "addr": {
      "street": "ul. Szafirowa",
      "osiedle": null,
      "city": "Siekierki Wielkie",
      "district": "gmina Kostrzyn",
      "confidence": "high"
    }
  },
  "67243356": {
    "skipped": "geocode_too_vague",
    "query": "gm. Kleszczewo, Śródka, Polska",
    "formatted": "63-006 Śródka, Polska",
    "addr": {
      "street": null,
      "osiedle": null,
      "city": "Śródka",
      "district": "gm. Kleszczewo",
      "confidence": "high"
    }
  },
  "67908557": {
    "skipped": "geocode_too_vague",
    "query": "Kostrzyn, Trzek, Polska",
    "formatted": "62-025 Trzek, Polska",
    "addr": {
      "street": null,
      "osiedle": null,
      "city": "Trzek",
      "district": "Kostrzyn",
      "confidence": "high"
    }
  },
  "66189683": {
    "orig_lat": 52.25879,
    "orig_lon": 16.61572,
    "new_lat": 52.258725,
    "new_lon": 16.615716,
    "dist_m": 7,
    "query": "ul. Pszennej, Strykowo, Polska",
    "formatted": "Pszenna, 62-060 Strykowo, Polska",
    "addr": {
      "street": "ul. Pszennej",
      "osiedle": "Osiedle Willowe",
      "city": "Strykowo",
      "district": "gm. Stęszew",
      "confidence": "high"
    },
    "geo_city": "Strykowo",
    "geo_district": null,
    "corrected": false
  },
  "68193624": {
    "skipped": "geocode_too_vague",
    "query": "ul. Rolnej, Wielka Wieś, Polska",
    "formatted": "32-089 Wielka Wieś, Polska",
    "addr": {
      "street": "ul. Rolnej",
      "osiedle": null,
      "city": "Wielka Wieś",
      "district": null,
      "confidence": "high"
    }
  },
  "68196073": {
    "skipped": "low_confidence",
    "addr": {
      "street": null,
      "osiedle": null,
      "city": "Szewce - Michalin",
      "district": null,
      "confidence": "high"
    }
  },
  "68091160": {
    "orig_lat": 52.3984,
    "orig_lon": 17.16137,
    "new_lat": 52.401117,
    "new_lon": 17.157725,
    "dist_m": 390,
    "query": "ul. Zimowej, Paczkowo, Polska",
    "formatted": "Zimowa, 62-021 Paczkowo, Polska",
    "addr": {
      "street": "ul. Zimowej",
      "osiedle": null,
      "city": "Paczkowo",
      "district": null,
      "confidence": "high"
    },
    "geo_city": "Paczkowo",
    "geo_district": null,
    "corrected": true
  },
  "67879143": {
    "orig_lat": 52.40149,
    "orig_lon": 17.15395,
    "new_lat": 52.401117,
    "new_lon": 17.157725,
    "dist_m": 259,
    "query": "ul. Zimowej, Paczkowo, Polska",
    "formatted": "Zimowa, 62-021 Paczkowo, Polska",
    "addr": {
      "street": "ul. Zimowej",
      "osiedle": null,
      "city": "Paczkowo",
      "district": "Swarzędz",
      "confidence": "high"
    },
    "geo_city": "Paczkowo",
    "geo_district": null,
    "corrected": true
  },
  "68061345": {
    "skipped": "geocode_too_vague",
    "query": "Łopuchowo, Łopuchowo, Polska",
    "formatted": "Łopuchowo, Polska",
    "addr": {
      "street": null,
      "osiedle": "Łopuchowo",
      "city": "Łopuchowo",
      "district": null,
      "confidence": "high"
    }
  },
  "68203851": {
    "skipped": "low_confidence",
    "addr": {
      "street": null,
      "osiedle": null,
      "city": "Kórnik",
      "district": null,
      "confidence": "high"
    }
  },
  "67809480": {
    "skipped": "low_confidence",
    "addr": {
      "street": null,
      "osiedle": null,
      "city": "Czerlejno",
      "district": null,
      "confidence": "high"
    }
  },
  "68196292": {
    "skipped": "low_confidence",
    "addr": {
      "street": null,
      "osiedle": null,
      "city": "Dopiewo",
      "district": null,
      "confidence": "high"
    }
  },
  "68174218": {
    "skipped": "low_confidence",
    "addr": {
      "street": null,
      "osiedle": null,
      "city": "Kórnik",
      "district": null,
      "confidence": "high"
    }
  },
  "68127813": {
    "orig_lat": 52.3672,
    "orig_lon": 16.66729,
    "new_lat": 52.366293,
    "new_lon": 16.668512,
    "dist_m": 131,
    "query": "ul. Więckowskiej, Dopiewo, Polska",
    "formatted": "Więckowska, Dopiewo, Polska",
    "addr": {
      "street": "ul. Więckowskiej",
      "osiedle": null,
      "city": "Dopiewo",
      "district": null,
      "confidence": "high"
    },
    "geo_city": "Dopiewo",
    "geo_district": null,
    "corrected": false
  },
  "68091494": {
    "skipped": "low_confidence",
    "addr": {
      "street": null,
      "osiedle": null,
      "city": "Kórnik",
      "district": null,
      "confidence": "high"
    }
  },
  "67962716": {
    "skipped": "low_confidence",
    "addr": {
      "street": null,
      "osiedle": null,
      "city": "Kórnik",
      "district": null,
      "confidence": "high"
    }
  },
  "65663662": {
    "skipped": "geocode_too_vague",
    "query": "ul. Zaciszna, Czapury, Polska",
    "formatted": "61-160 Czapury, Polska",
    "addr": {
      "street": "ul. Zaciszna",
      "osiedle": "Osiedle Zacisze",
      "city": "Czapury",
      "district": null,
      "confidence": "high"
    }
  },
  "68221187": {
    "orig_lat": 52.4353,
    "orig_lon": 17.06231,
    "new_lat": 52.43639,
    "new_lon": 17.06128,
    "dist_m": 140,
    "query": "Ostoja Gruszczyn, Gruszczyn, Polska",
    "formatted": "Noskowskiego, 62-006 Gruszczyn, Polska",
    "addr": {
      "street": null,
      "osiedle": "Ostoja Gruszczyn",
      "city": "Gruszczyn",
      "district": null,
      "confidence": "high"
    },
    "geo_city": "Gruszczyn",
    "geo_district": null,
    "corrected": false
  },
  "68130638": {
    "skipped": "geocode_too_vague",
    "query": "ul. Agatowej, Sierosław, Polska",
    "formatted": "Sierosław, Polska",
    "addr": {
      "street": "ul. Agatowej",
      "osiedle": null,
      "city": "Sierosław",
      "district": null,
      "confidence": "high"
    }
  },
  "66702640": {
    "skipped": "low_confidence",
    "addr": {
      "street": null,
      "osiedle": null,
      "city": "Dopiewo",
      "district": null,
      "confidence": "high"
    }
  },
  "68074913": {
    "skipped": "low_confidence",
    "addr": {
      "street": null,
      "osiedle": null,
      "city": "Pamiątkowo",
      "district": null,
      "confidence": "high"
    }
  },
  "68196070": {
    "skipped": "low_confidence",
    "addr": {
      "street": null,
      "osiedle": null,
      "city": "Mosina",
      "district": null,
      "confidence": "high"
    }
  },
  "68000041": {
    "orig_lat": 52.51897,
    "orig_lon": 16.71284,
    "new_lat": 52.518335,
    "new_lon": 16.713279,
    "dist_m": 77,
    "query": "ul. Słonecznikowa, Mrowino, Polska",
    "formatted": "Słonecznikowa, 62-090 Mrowino, Polska",
    "addr": {
      "street": "ul. Słonecznikowa",
      "osiedle": null,
      "city": "Mrowino",
      "district": null,
      "confidence": "high"
    },
    "geo_city": "Mrowino",
    "geo_district": null,
    "corrected": false
  },
  "67973748": {
    "skipped": "low_confidence",
    "addr": {
      "street": null,
      "osiedle": null,
      "city": "Poznań",
      "district": null,
      "confidence": "high"
    }
  },
  "68095417": {
    "skipped": "geocode_too_vague",
    "query": "osiedle Akacjowe, Wierzyce, Polska",
    "formatted": "Osiedle Akacjowe, Polska",
    "addr": {
      "street": null,
      "osiedle": "osiedle Akacjowe",
      "city": "Wierzyce",
      "district": null,
      "confidence": "high"
    }
  },
  "66614540": {
    "orig_lat": 52.57181,
    "orig_lon": 17.02344,
    "new_lat": 52.571341,
    "new_lon": 17.025604,
    "dist_m": 155,
    "query": "ul. Gnieźnieńska, Murowana Goślina, Polska",
    "formatted": "Gnieźnieńska, 62-095 Murowana Goślina, Polska",
    "addr": {
      "street": "ul. Gnieźnieńska",
      "osiedle": "Osiedle Makowe",
      "city": "Murowana Goślina",
      "district": null,
      "confidence": "high"
    },
    "geo_city": "Murowana Goślina",
    "geo_district": null,
    "corrected": false
  },
  "67248592": {
    "skipped": "low_confidence",
    "addr": {
      "street": null,
      "osiedle": null,
      "city": "Konarzewo",
      "district": null,
      "confidence": "high"
    }
  },
  "65002682": {
    "skipped": "low_confidence",
    "addr": {
      "street": null,
      "osiedle": null,
      "city": "Trzaskowo",
      "district": null,
      "confidence": "high"
    }
  },
  "64966722": {
    "skipped": "low_confidence",
    "addr": {
      "street": null,
      "osiedle": null,
      "city": "Trzaskowo",
      "district": null,
      "confidence": "high"
    }
  },
  "67297337": {
    "skipped": "low_confidence",
    "addr": {
      "street": null,
      "osiedle": null,
      "city": "Czmoń",
      "district": null,
      "confidence": "high"
    }
  },
  "96729733700067": {
    "skipped": "low_confidence",
    "addr": {
      "street": null,
      "osiedle": null,
      "city": "Czmoń",
      "district": null,
      "confidence": "high"
    }
  },
  "68195757": {
    "skipped": "low_confidence",
    "addr": {
      "street": null,
      "osiedle": null,
      "city": "Dachowa",
      "district": null,
      "confidence": "high"
    }
  },
  "96819575700067": {
    "skipped": "low_confidence",
    "addr": {
      "street": null,
      "osiedle": null,
      "city": "Dachowa",
      "district": null,
      "confidence": "high"
    }
  },
  "67751279": {
    "skipped": "geocode_too_vague",
    "query": "Gwiazdowo, Gwiazdowo, Polska",
    "formatted": "Gwiazdowo, Polska",
    "addr": {
      "street": null,
      "osiedle": "Gwiazdowo",
      "city": "Gwiazdowo",
      "district": null,
      "confidence": "high"
    }
  },
  "68144755": {
    "skipped": "low_confidence",
    "addr": {
      "street": null,
      "osiedle": null,
      "city": "Szczytniki",
      "district": null,
      "confidence": "high"
    }
  },
  "68144203": {
    "orig_lat": 52.29489,
    "orig_lon": 17.00743,
    "new_lat": 52.2962,
    "new_lon": 17.007759,
    "dist_m": 147,
    "query": "ul. Choinkowej, Szczytniki, Polska",
    "formatted": "Choinkowa, 62-023 Szczytniki, Polska",
    "addr": {
      "street": "ul. Choinkowej",
      "osiedle": null,
      "city": "Szczytniki",
      "district": "gmina Kórnik",
      "confidence": "high"
    },
    "geo_city": "Szczytniki",
    "geo_district": null,
    "corrected": false
  },
  "64365612": {
    "skipped": "low_confidence",
    "addr": {
      "street": null,
      "osiedle": null,
      "city": null,
      "district": null,
      "confidence": "low"
    }
  },
  "62644174": {
    "orig_lat": 52.38786,
    "orig_lon": 17.11767,
    "new_lat": 52.38722,
    "new_lon": 17.122592,
    "dist_m": 342,
    "query": "Zielone Rabowice, Rabowice, Polska",
    "formatted": "Pomarańczowa, 62-020 Rabowice, Polska",
    "addr": {
      "street": null,
      "osiedle": "Zielone Rabowice",
      "city": "Rabowice",
      "district": null,
      "confidence": "high"
    },
    "geo_city": "Rabowice",
    "geo_district": null,
    "corrected": true
  },
  "67364560": {
    "orig_lat": 52.49109,
    "orig_lon": 17.29391,
    "new_lat": 52.4911,
    "new_lon": 17.292986,
    "dist_m": 63,
    "query": "ul. Północna, Pobiedziska, Polska",
    "formatted": "Północna, 62-010 Pobiedziska, Polska",
    "addr": {
      "street": "ul. Północna",
      "osiedle": null,
      "city": "Pobiedziska",
      "district": null,
      "confidence": "high"
    },
    "geo_city": "Pobiedziska",
    "geo_district": null,
    "corrected": false
  },
  "68143820": {
    "skipped": "low_confidence",
    "addr": {
      "street": null,
      "osiedle": null,
      "city": "wieś",
      "district": null,
      "confidence": "high"
    }
  },
  "68058562": {
    "skipped": "low_confidence",
    "addr": {
      "street": null,
      "osiedle": null,
      "city": "Kórnik",
      "district": null,
      "confidence": "high"
    }
  },
  "67734825": {
    "orig_lat": 52.4862,
    "orig_lon": 16.72952,
    "new_lat": 52.486258,
    "new_lon": 16.728806,
    "dist_m": 49,
    "query": "ul. Rokietnickiej 14 i 12, Napachanie, Polska",
    "formatted": "Rokietnicka 14/12, 62-090 Napachanie, Polska",
    "addr": {
      "street": "ul. Rokietnickiej 14 i 12",
      "osiedle": null,
      "city": "Napachanie",
      "district": null,
      "confidence": "high"
    },
    "geo_city": "Napachanie",
    "geo_district": null,
    "corrected": false
  },
  "67625829": {
    "skipped": "geocode_too_vague",
    "query": "nowe osiedle domów jednorodzinnych, Napachanie, Polska",
    "formatted": "62-090 Napachanie, Polska",
    "addr": {
      "street": null,
      "osiedle": "nowe osiedle domów jednorodzinnych",
      "city": "Napachanie",
      "district": null,
      "confidence": "high"
    }
  },
  "68207089": {
    "skipped": "geocode_too_vague",
    "query": "Pastelowe Osiedle, Czapury, Polska",
    "formatted": "61-160 Czapury, Polska",
    "addr": {
      "street": null,
      "osiedle": "Pastelowe Osiedle",
      "city": "Czapury",
      "district": null,
      "confidence": "high"
    }
  },
  "68036148": {
    "orig_lat": 52.44804,
    "orig_lon": 16.95869,
    "new_lat": 52.448325,
    "new_lon": 16.957815,
    "dist_m": 67,
    "query": "Osiedle WITAJ, Poznań, Polska",
    "formatted": "Bielicowa 2, 61-612 Poznań, Polska",
    "addr": {
      "street": null,
      "osiedle": "Osiedle WITAJ",
      "city": "Poznań",
      "district": "Naramowice",
      "confidence": "high"
    },
    "geo_city": "Poznań",
    "geo_district": null,
    "corrected": false
  },
  "68100093": {
    "skipped": "low_confidence",
    "addr": {
      "street": null,
      "osiedle": null,
      "city": "X",
      "district": null,
      "confidence": "high"
    }
  },
  "68196296": {
    "skipped": "low_confidence",
    "addr": {
      "street": null,
      "osiedle": null,
      "city": "X",
      "district": null,
      "confidence": "high"
    }
  },
  "63529534": {
    "orig_lat": 52.31547,
    "orig_lon": 16.87666,
    "new_lat": 52.315474,
    "new_lon": 16.876659,
    "dist_m": 0,
    "query": "ul. Krzywej, Łęczyca, Polska",
    "formatted": "Krzywa, 62-051 Łęczyca, Polska",
    "addr": {
      "street": "ul. Krzywej",
      "osiedle": null,
      "city": "Łęczyca",
      "district": null,
      "confidence": "high"
    },
    "geo_city": "Łęczyca",
    "geo_district": null,
    "corrected": false
  },
  "68183143": {
    "skipped": "low_confidence",
    "addr": {
      "street": null,
      "osiedle": null,
      "city": "X",
      "district": null,
      "confidence": "high"
    }
  },
  "66823560": {
    "orig_lat": 52.4591,
    "orig_lon": 16.62191,
    "new_lat": 52.463331,
    "new_lon": 16.624755,
    "dist_m": 508,
    "query": "ul. Szkolna, Rumianek, Polska",
    "formatted": "Szkolna, 62-080 Rumianek, Polska",
    "addr": {
      "street": "ul. Szkolna",
      "osiedle": null,
      "city": "Rumianek",
      "district": null,
      "confidence": "high"
    },
    "geo_city": "Rumianek",
    "geo_district": null,
    "corrected": true
  },
  "65898079": {
    "orig_lat": 52.34897,
    "orig_lon": 17.02047,
    "new_lat": 52.349128,
    "new_lon": 17.020284,
    "dist_m": 22,
    "query": "ul. Biesiadna, Poznań, Polska",
    "formatted": "Biesiadna, 61-324 Poznań, Polska",
    "addr": {
      "street": "ul. Biesiadna",
      "osiedle": null,
      "city": "Poznań",
      "district": "Szczepankowo",
      "confidence": "high"
    },
    "geo_city": "Poznań",
    "geo_district": null,
    "corrected": false
  },
  "60792257": {
    "skipped": "geocode_too_vague",
    "query": "Enklawa Nad Jeziorem, Tarnowo, Polska",
    "formatted": "Tarnowo, Polska",
    "addr": {
      "street": null,
      "osiedle": "Enklawa Nad Jeziorem",
      "city": "Tarnowo",
      "district": null,
      "confidence": "high"
    }
  },
  "66478926": {
    "skipped": "low_confidence",
    "addr": {
      "street": null,
      "osiedle": null,
      "city": "Poznań",
      "district": null,
      "confidence": "medium"
    }
  },
  "67810021": {
    "orig_lat": 52.35454,
    "orig_lon": 17.01192,
    "new_lat": 52.348787,
    "new_lon": 17.021301,
    "dist_m": 903,
    "query": "ul. Biesiadnej 12/1, Poznań, Polska",
    "formatted": "Biesiadna 12/1, 61-324 Poznań, Polska",
    "addr": {
      "street": "ul. Biesiadnej 12/1",
      "osiedle": null,
      "city": "Poznań",
      "district": null,
      "confidence": "high"
    },
    "geo_city": "Poznań",
    "geo_district": null,
    "corrected": true
  },
  "67480060": {
    "orig_lat": 52.35456,
    "orig_lon": 17.10923,
    "new_lat": 52.353391,
    "new_lon": 17.109175,
    "dist_m": 130,
    "query": "ul. Śnieżnej, Gowarzewo, Polska",
    "formatted": "Śnieżna, 63-004, Polska",
    "addr": {
      "street": "ul. Śnieżnej",
      "osiedle": null,
      "city": "Gowarzewo",
      "district": null,
      "confidence": "high"
    },
    "geo_city": "Powiat poznański",
    "geo_district": null,
    "corrected": false
  },
  "65671926": {
    "skipped": "low_confidence",
    "addr": {
      "street": null,
      "osiedle": null,
      "city": "Poznań",
      "district": null,
      "confidence": "medium"
    }
  },
  "67810150": {
    "orig_lat": 52.35454,
    "orig_lon": 17.01192,
    "new_lat": 52.348787,
    "new_lon": 17.021301,
    "dist_m": 903,
    "query": "ul. Biesiadnej 12/1, Poznań, Polska",
    "formatted": "Biesiadna 12/1, 61-324 Poznań, Polska",
    "addr": {
      "street": "ul. Biesiadnej 12/1",
      "osiedle": null,
      "city": "Poznań",
      "district": null,
      "confidence": "high"
    },
    "geo_city": "Poznań",
    "geo_district": null,
    "corrected": true
  },
  "65423909": {
    "orig_lat": 52.38786,
    "orig_lon": 17.11767,
    "new_lat": 52.38722,
    "new_lon": 17.122592,
    "dist_m": 342,
    "query": "Zielone Rabowice, Rabowice, Polska",
    "formatted": "Pomarańczowa, 62-020 Rabowice, Polska",
    "addr": {
      "street": null,
      "osiedle": "Zielone Rabowice",
      "city": "Rabowice",
      "district": null,
      "confidence": "high"
    },
    "geo_city": "Rabowice",
    "geo_district": null,
    "corrected": true
  },
  "47286048": {
    "orig_lat": 52.34079,
    "orig_lon": 16.71699,
    "new_lat": 52.343963,
    "new_lon": 16.71128,
    "dist_m": 524,
    "query": "ul. Młyńskiej, Konarzewo, Polska",
    "formatted": "Młyńska, 62-070 Konarzewo, Polska",
    "addr": {
      "street": "ul. Młyńskiej",
      "osiedle": null,
      "city": "Konarzewo",
      "district": "gm. Dopiewo",
      "confidence": "high"
    },
    "geo_city": "Konarzewo",
    "geo_district": null,
    "corrected": true
  },
  "67307567": {
    "skipped": "geocode_too_vague",
    "query": "ul. Agatowej, Sierosław, Polska",
    "formatted": "Sierosław, Polska",
    "addr": {
      "street": "ul. Agatowej",
      "osiedle": null,
      "city": "Sierosław",
      "district": null,
      "confidence": "high"
    }
  },
  "67309892": {
    "orig_lat": 52.34088,
    "orig_lon": 16.71688,
    "new_lat": 52.343963,
    "new_lon": 16.71128,
    "dist_m": 512,
    "query": "ul. Młyńskiej, Konarzewo, Polska",
    "formatted": "Młyńska, 62-070 Konarzewo, Polska",
    "addr": {
      "street": "ul. Młyńskiej",
      "osiedle": null,
      "city": "Konarzewo",
      "district": "gm. Dopiewo",
      "confidence": "high"
    },
    "geo_city": "Konarzewo",
    "geo_district": null,
    "corrected": true
  },
  "68196291": {
    "skipped": "low_confidence",
    "addr": {
      "street": null,
      "osiedle": null,
      "city": "Konarzewo",
      "district": null,
      "confidence": "high"
    }
  },
  "68063578": {
    "orig_lat": 52.34396,
    "orig_lon": 16.71128,
    "new_lat": 52.340897,
    "new_lon": 16.716965,
    "dist_m": 515,
    "query": "ul. Młyńska 33/2, Konarzewo, Polska",
    "formatted": "Młyńska 33/2, 62-070 Konarzewo, Polska",
    "addr": {
      "street": "ul. Młyńska 33/2",
      "osiedle": null,
      "city": "Konarzewo",
      "district": "Dopiewo",
      "confidence": "high"
    },
    "geo_city": "Konarzewo",
    "geo_district": null,
    "corrected": true
  },
  "68103573": {
    "orig_lat": 52.47481,
    "orig_lon": 16.94492,
    "new_lat": 52.488932,
    "new_lon": 16.925726,
    "dist_m": 2038,
    "query": "ul. Jaśkowiaka, Poznań, Polska",
    "formatted": "Franciszka Jaśkowiaka, 61-680 Poznań, Polska",
    "addr": {
      "street": "ul. Jaśkowiaka",
      "osiedle": "PARK MORASKO",
      "city": "Poznań",
      "district": "Morasko",
      "confidence": "high"
    },
    "geo_city": "Poznań",
    "geo_district": null,
    "corrected": true
  },
  "68103572": {
    "orig_lat": 52.48793,
    "orig_lon": 16.91606,
    "new_lat": 52.488932,
    "new_lon": 16.925726,
    "dist_m": 664,
    "query": "ul. Jaśkowiaka, Poznań, Polska",
    "formatted": "Franciszka Jaśkowiaka, 61-680 Poznań, Polska",
    "addr": {
      "street": "ul. Jaśkowiaka",
      "osiedle": "PARK MORASKO",
      "city": "Poznań",
      "district": "Morasko",
      "confidence": "high"
    },
    "geo_city": "Poznań",
    "geo_district": null,
    "corrected": true
  },
  "68035400": {
    "skipped": "low_confidence",
    "addr": {
      "street": null,
      "osiedle": null,
      "city": "Poznań",
      "district": null,
      "confidence": "high"
    }
  },
  "62306593": {
    "skipped": "geocode_too_vague",
    "query": "Enklawa Nad Jeziorem, Tarnowo, Polska",
    "formatted": "Tarnowo, Polska",
    "addr": {
      "street": null,
      "osiedle": "Enklawa Nad Jeziorem",
      "city": "Tarnowo",
      "district": null,
      "confidence": "high"
    }
  },
  "68219246": {
    "skipped": "low_confidence",
    "addr": {
      "street": null,
      "osiedle": null,
      "city": "Kostrzyn",
      "district": null,
      "confidence": "high"
    }
  },
  "68195758": {
    "skipped": "low_confidence",
    "addr": {
      "street": null,
      "osiedle": null,
      "city": "Kamionki",
      "district": null,
      "confidence": "high"
    }
  },
  "67809840": {
    "orig_lat": 52.35454,
    "orig_lon": 17.01192,
    "new_lat": 52.348787,
    "new_lon": 17.021301,
    "dist_m": 903,
    "query": "ul. Biesiadnej 12/2, Poznań, Polska",
    "formatted": "Biesiadna 12/2, 61-324 Poznań, Polska",
    "addr": {
      "street": "ul. Biesiadnej 12/2",
      "osiedle": null,
      "city": "Poznań",
      "district": null,
      "confidence": "high"
    },
    "geo_city": "Poznań",
    "geo_district": null,
    "corrected": true
  },
  "67810112": {
    "orig_lat": 52.35454,
    "orig_lon": 17.01192,
    "new_lat": 52.348787,
    "new_lon": 17.021301,
    "dist_m": 903,
    "query": "ul. Biesiadnej 12/2, Poznań, Polska",
    "formatted": "Biesiadna 12/2, 61-324 Poznań, Polska",
    "addr": {
      "street": "ul. Biesiadnej 12/2",
      "osiedle": null,
      "city": "Poznań",
      "district": null,
      "confidence": "high"
    },
    "geo_city": "Poznań",
    "geo_district": null,
    "corrected": true
  },
  "65061339": {
    "skipped": "low_confidence",
    "addr": {
      "street": null,
      "osiedle": null,
      "city": "pod Poznaniem",
      "district": null,
      "confidence": "high"
    }
  },
  "96506133900067": {
    "skipped": "low_confidence",
    "addr": {
      "street": null,
      "osiedle": null,
      "city": "pod Poznaniem",
      "district": null,
      "confidence": "high"
    }
  },
  "66680816": {
    "orig_lat": 52.3807,
    "orig_lon": 17.16348,
    "new_lat": 52.390915,
    "new_lon": 17.167667,
    "dist_m": 1171,
    "query": "ul. Jabłonowa 12, Siekierki Wielkie, Polska",
    "formatted": "Jabłoniowa 12, 62-025 Siekierki Wielkie, Polska",
    "addr": {
      "street": "ul. Jabłonowa 12",
      "osiedle": null,
      "city": "Siekierki Wielkie",
      "district": "Kostrzyn",
      "confidence": "high"
    },
    "geo_city": "Siekierki Wielkie",
    "geo_district": null,
    "corrected": true
  },
  "67941071": {
    "skipped": "geocode_too_vague",
    "query": "Swarzędz, Gortatów, Polska",
    "formatted": "62-020 Gortatowo, Polska",
    "addr": {
      "street": null,
      "osiedle": null,
      "city": "Gortatów",
      "district": "Swarzędz",
      "confidence": "high"
    }
  },
  "65002716": {
    "skipped": "low_confidence",
    "addr": {
      "street": null,
      "osiedle": null,
      "city": "Puszcza Zielonka",
      "district": null,
      "confidence": "high"
    }
  },
  "68161528": {
    "skipped": "geocode_too_vague",
    "query": "ul. Obornicka, Złotniki, Polska",
    "formatted": "Obornicka, Polska",
    "addr": {
      "street": "ul. Obornicka",
      "osiedle": "Złotniki Park",
      "city": "Złotniki",
      "district": "Suchy Las",
      "confidence": "high"
    }
  },
  "66528890": {
    "orig_lat": 52.39177,
    "orig_lon": 16.84631,
    "new_lat": 52.391251,
    "new_lon": 16.846152,
    "dist_m": 59,
    "query": "Jeleniogórska 5, null, Polska",
    "formatted": "Jeleniogórska 5, 60-179 Poznań, Polska",
    "addr": {
      "street": "Jeleniogórska 5",
      "osiedle": null,
      "city": "null",
      "district": null,
      "confidence": "medium"
    },
    "geo_city": "Poznań",
    "geo_district": null,
    "corrected": false
  },
  "65565929": {
    "orig_lat": 52.30419,
    "orig_lon": 17.10051,
    "new_lat": 52.293725,
    "new_lon": 17.073739,
    "dist_m": 2161,
    "query": "Nowina, Dachowa, Polska",
    "formatted": "Nowina, 62-023 Dachowa, Polska",
    "addr": {
      "street": null,
      "osiedle": "Nowina",
      "city": "Dachowa",
      "district": null,
      "confidence": "high"
    },
    "geo_city": "Dachowa",
    "geo_district": null,
    "corrected": true
  },
  "66583582": {
    "orig_lat": 52.30419,
    "orig_lon": 17.10051,
    "new_lat": 52.293725,
    "new_lon": 17.07374,
    "dist_m": 2161,
    "query": "Osiedle Nowina I, Dachowa, Polska",
    "formatted": "Nowina, 62-023 Dachowa, Polska",
    "addr": {
      "street": null,
      "osiedle": "Osiedle Nowina I",
      "city": "Dachowa",
      "district": null,
      "confidence": "high"
    },
    "geo_city": "Dachowa",
    "geo_district": null,
    "corrected": true
  },
  "67584341": {
    "skipped": "low_confidence",
    "addr": {
      "street": null,
      "osiedle": null,
      "city": "Gortatów",
      "district": null,
      "confidence": "high"
    }
  },
  "64772614": {
    "skipped": "low_confidence",
    "addr": {
      "street": null,
      "osiedle": null,
      "city": "Poznań",
      "district": null,
      "confidence": "medium"
    }
  },
  "67058659": {
    "skipped": "geocode_too_vague",
    "query": "Kostrzyn, Gwiazdowo, Polska",
    "formatted": "Gwiazdowo, Polska",
    "addr": {
      "street": null,
      "osiedle": null,
      "city": "Gwiazdowo",
      "district": "Kostrzyn",
      "confidence": "high"
    }
  },
  "68074991": {
    "skipped": "geocode_too_vague",
    "query": "Pastelowe Osiedle, Czapury, Polska",
    "formatted": "61-160 Czapury, Polska",
    "addr": {
      "street": null,
      "osiedle": "Pastelowe Osiedle",
      "city": "Czapury",
      "district": null,
      "confidence": "high"
    }
  },
  "68141825": {
    "orig_lat": 52.35519,
    "orig_lon": 16.71289,
    "new_lat": 52.357313,
    "new_lon": 16.712863,
    "dist_m": 236,
    "query": "Bajkowy Dopiewiec, Dopiewiec, Polska",
    "formatted": "Marii Konopnickiej, 62-070 Dopiewiec, Polska",
    "addr": {
      "street": null,
      "osiedle": "Bajkowy Dopiewiec",
      "city": "Dopiewiec",
      "district": null,
      "confidence": "high"
    },
    "geo_city": "Dopiewiec",
    "geo_district": null,
    "corrected": true
  },
  "67920852": {
    "orig_lat": 52.39103,
    "orig_lon": 16.59958,
    "new_lat": 52.390895,
    "new_lon": 16.599518,
    "dist_m": 16,
    "query": "ul. Malinowa 15, Niepruszewo, Polska",
    "formatted": "Malinowa 15, 64-320 Niepruszewo, Polska",
    "addr": {
      "street": "ul. Malinowa 15",
      "osiedle": null,
      "city": "Niepruszewo",
      "district": null,
      "confidence": "high"
    },
    "geo_city": "Niepruszewo",
    "geo_district": null,
    "corrected": false
  },
  "67790909": {
    "orig_lat": 52.56713,
    "orig_lon": 16.99629,
    "new_lat": 52.565,
    "new_lon": 17.008333,
    "dist_m": 848,
    "query": "Osiedle Zielone Wzgórza, Murowana Goślina, Polska",
    "formatted": "Zielone Wzgórza, 62-095 Murowana Goślina, Polska",
    "addr": {
      "street": null,
      "osiedle": "Osiedle Zielone Wzgórza",
      "city": "Murowana Goślina",
      "district": null,
      "confidence": "high"
    },
    "geo_city": "Murowana Goślina",
    "geo_district": null,
    "corrected": true
  },
  "66683094": {
    "orig_lat": 52.44821,
    "orig_lon": 16.96004,
    "new_lat": 52.449343,
    "new_lon": 16.958058,
    "dist_m": 184,
    "query": "ul. Bielicowa 2, Poznań, Polska",
    "formatted": "Bielicowa 2, 61-612 Poznań, Polska",
    "addr": {
      "street": "ul. Bielicowa 2",
      "osiedle": "Osiedle Witaj",
      "city": "Poznań",
      "district": "Naramowice",
      "confidence": "high"
    },
    "geo_city": "Poznań",
    "geo_district": null,
    "corrected": false
  },
  "96668309400067": {
    "orig_lat": 52.44821,
    "orig_lon": 16.96004,
    "new_lat": 52.449343,
    "new_lon": 16.958058,
    "dist_m": 184,
    "query": "ul. Bielicowa 2, Poznań, Polska",
    "formatted": "Bielicowa 2, 61-612 Poznań, Polska",
    "addr": {
      "street": "ul. Bielicowa 2",
      "osiedle": "Osiedle Witaj",
      "city": "Poznań",
      "district": "Naramowice",
      "confidence": "high"
    },
    "geo_city": "Poznań",
    "geo_district": null,
    "corrected": false
  },
  "67828355": {
    "skipped": "low_confidence",
    "addr": {
      "street": null,
      "osiedle": null,
      "city": "Kruszewnia",
      "district": null,
      "confidence": "high"
    }
  },
  "66484229": {
    "orig_lat": 52.44947,
    "orig_lon": 16.67143,
    "new_lat": 52.482964,
    "new_lon": 16.657197,
    "dist_m": 3847,
    "query": "ul. Ustronnej 10, Góra, Polska",
    "formatted": "Ustronna 10, 62-080 Góra, Polska",
    "addr": {
      "street": "ul. Ustronnej 10",
      "osiedle": "Osiedle Góra",
      "city": "Góra",
      "district": null,
      "confidence": "high"
    },
    "geo_city": "Góra",
    "geo_district": null,
    "corrected": true
  },
  "66877129": {
    "orig_lat": 52.37452,
    "orig_lon": 17.15866,
    "new_lat": 52.373892,
    "new_lon": 17.157495,
    "dist_m": 106,
    "query": "ul. Tulecka, Siekierki Wielkie, Polska",
    "formatted": "Tulecka, 62-025, Polska",
    "addr": {
      "street": "ul. Tulecka",
      "osiedle": null,
      "city": "Siekierki Wielkie",
      "district": null,
      "confidence": "high"
    },
    "geo_city": "Powiat poznański",
    "geo_district": null,
    "corrected": false
  },
  "67390580": {
    "orig_lat": 52.34897,
    "orig_lon": 17.02047,
    "new_lat": 52.349128,
    "new_lon": 17.020284,
    "dist_m": 22,
    "query": "ul. Biesiadna, Poznań, Polska",
    "formatted": "Biesiadna, 61-324 Poznań, Polska",
    "addr": {
      "street": "ul. Biesiadna",
      "osiedle": null,
      "city": "Poznań",
      "district": "Szczepankowo",
      "confidence": "high"
    },
    "geo_city": "Poznań",
    "geo_district": null,
    "corrected": false
  },
  "68196381": {
    "orig_lat": 52.62072,
    "orig_lon": 17.11817,
    "new_lat": 52.621043,
    "new_lon": 17.117873,
    "dist_m": 41,
    "query": "ul. Pieczarkowa, Łopuchowo, Polska",
    "formatted": "Pieczarkowa, 62-093, Polska",
    "addr": {
      "street": "ul. Pieczarkowa",
      "osiedle": "Osiedle Przy Puszczy",
      "city": "Łopuchowo",
      "district": null,
      "confidence": "high"
    },
    "geo_city": "Powiat poznański",
    "geo_district": null,
    "corrected": false
  },
  "67965147": {
    "skipped": "geocode_too_vague",
    "query": "Aurum Development, Skrzynki, Polska",
    "formatted": "62-060 Skrzynki, Polska",
    "addr": {
      "street": null,
      "osiedle": "Aurum Development",
      "city": "Skrzynki",
      "district": "gmina Kórnik",
      "confidence": "high"
    }
  },
  "67562469": {
    "skipped": "geocode_too_vague",
    "query": "Osiedle Natura Biedrusko, Biedrusko, Polska",
    "formatted": "Biedrusko, Polska",
    "addr": {
      "street": null,
      "osiedle": "Osiedle Natura Biedrusko",
      "city": "Biedrusko",
      "district": null,
      "confidence": "high"
    }
  },
  "68135558": {
    "skipped": "geocode_too_vague",
    "query": "ul. Zaciszna, Czapury, Polska",
    "formatted": "61-160 Czapury, Polska",
    "addr": {
      "street": "ul. Zaciszna",
      "osiedle": "Osiedle Zacisze",
      "city": "Czapury",
      "district": null,
      "confidence": "high"
    }
  },
  "65663618": {
    "skipped": "geocode_too_vague",
    "query": "ul. Zaciszna, Czapury, Polska",
    "formatted": "61-160 Czapury, Polska",
    "addr": {
      "street": "ul. Zaciszna",
      "osiedle": "Osiedle Zacisze",
      "city": "Czapury",
      "district": null,
      "confidence": "high"
    }
  },
  "96819638100067": {
    "orig_lat": 52.62072,
    "orig_lon": 17.11817,
    "new_lat": 52.621043,
    "new_lon": 17.117873,
    "dist_m": 41,
    "query": "ul. Pieczarkowa, Łopuchowo, Polska",
    "formatted": "Pieczarkowa, 62-093, Polska",
    "addr": {
      "street": "ul. Pieczarkowa",
      "osiedle": "Osiedle Przy Puszczy",
      "city": "Łopuchowo",
      "district": null,
      "confidence": "high"
    },
    "geo_city": "Powiat poznański",
    "geo_district": null,
    "corrected": false
  },
  "68219430": {
    "skipped": "low_confidence",
    "addr": {
      "street": null,
      "osiedle": null,
      "city": "Zimin",
      "district": null,
      "confidence": "high"
    }
  },
  "68047328": {
    "skipped": "low_confidence",
    "addr": {
      "street": null,
      "osiedle": null,
      "city": "rozwijającym osiedlu nowych domów jednorodzinnych",
      "district": null,
      "confidence": "medium"
    }
  },
  "68195110": {
    "skipped": "low_confidence",
    "addr": {
      "street": null,
      "osiedle": null,
      "city": "Witobel",
      "district": null,
      "confidence": "high"
    }
  },
  "68217325": {
    "orig_lat": 52.39035,
    "orig_lon": 17.16834,
    "new_lat": 52.390308,
    "new_lon": 17.16833,
    "dist_m": 5,
    "query": "ul. Brzoskwiniowa, Siekierki Wielkie, Polska",
    "formatted": "Brzoskwiniowa, 62-025, Polska",
    "addr": {
      "street": "ul. Brzoskwiniowa",
      "osiedle": null,
      "city": "Siekierki Wielkie",
      "district": null,
      "confidence": "high"
    },
    "geo_city": "Powiat poznański",
    "geo_district": null,
    "corrected": false
  },
  "68162742": {
    "skipped": "low_confidence",
    "addr": {
      "street": null,
      "osiedle": null,
      "city": "Promno",
      "district": null,
      "confidence": "high"
    }
  },
  "67227187": {
    "orig_lat": 52.26491,
    "orig_lon": 17.07328,
    "new_lat": 52.265097,
    "new_lon": 17.074055,
    "dist_m": 57,
    "query": "ul. Truskawkowej, Skrzynki, Polska",
    "formatted": "Truskawkowa, 62-035, Polska",
    "addr": {
      "street": "ul. Truskawkowej",
      "osiedle": null,
      "city": "Skrzynki",
      "district": null,
      "confidence": "high"
    },
    "geo_city": "Powiat poznański",
    "geo_district": null,
    "corrected": false
  },
  "66493708": {
    "skipped": "low_confidence",
    "addr": {
      "street": null,
      "osiedle": null,
      "city": "Kostrzyn",
      "district": null,
      "confidence": "high"
    }
  },
  "66936450": {
    "orig_lat": 52.5099,
    "orig_lon": 16.75416,
    "new_lat": 52.505428,
    "new_lon": 16.758725,
    "dist_m": 585,
    "query": "ul. Golęcińska, Rokietnica, Polska",
    "formatted": "Golęcińska, 62-090 Rokietnica, Polska",
    "addr": {
      "street": "ul. Golęcińska",
      "osiedle": null,
      "city": "Rokietnica",
      "district": null,
      "confidence": "high"
    },
    "geo_city": "Rokietnica",
    "geo_district": null,
    "corrected": true
  },
  "68196295": {
    "skipped": "low_confidence",
    "addr": {
      "street": null,
      "osiedle": null,
      "city": "Dopiewiec",
      "district": null,
      "confidence": "high"
    }
  },
  "68195765": {
    "skipped": "low_confidence",
    "addr": {
      "street": null,
      "osiedle": null,
      "city": "Kamionki",
      "district": null,
      "confidence": "high"
    }
  },
  "68195753": {
    "skipped": "low_confidence",
    "addr": {
      "street": null,
      "osiedle": null,
      "city": "Siekierki Wielkie",
      "district": null,
      "confidence": "high"
    }
  },
  "68187448": {
    "skipped": "low_confidence",
    "addr": {
      "street": null,
      "osiedle": null,
      "city": "Siekierki Wielkie",
      "district": null,
      "confidence": "high"
    }
  },
  "66468211": {
    "orig_lat": 52.28176,
    "orig_lon": 16.61772,
    "new_lat": 52.295295,
    "new_lon": 16.626892,
    "dist_m": 1629,
    "query": "ul. Truskawkowa, Sapowice, Polska",
    "formatted": "Truskawkowa, 62-060 Sapowice, Polska",
    "addr": {
      "street": "ul. Truskawkowa",
      "osiedle": "Osiedle Nad Jeziorem",
      "city": "Sapowice",
      "district": null,
      "confidence": "high"
    },
    "geo_city": "Sapowice",
    "geo_district": null,
    "corrected": true
  },
  "68156144": {
    "orig_lat": 52.41024,
    "orig_lon": 17.07804,
    "new_lat": 52.417004,
    "new_lon": 17.116566,
    "dist_m": 2719,
    "query": "ul. Szkolna, Łowęcin, Polska",
    "formatted": "Szkolna, 62-020 Łowęcin, Polska",
    "addr": {
      "street": "ul. Szkolna",
      "osiedle": null,
      "city": "Łowęcin",
      "district": null,
      "confidence": "high"
    },
    "geo_city": "Łowęcin",
    "geo_district": null,
    "corrected": true
  },
  "67977108": {
    "skipped": "low_confidence",
    "addr": {
      "street": null,
      "osiedle": null,
      "city": "Daszewice",
      "district": null,
      "confidence": "high"
    }
  },
  "68139875": {
    "skipped": "low_confidence",
    "addr": {
      "street": null,
      "osiedle": null,
      "city": "Kamionki",
      "district": null,
      "confidence": "high"
    }
  },
  "67835307": {
    "orig_lat": 52.39116,
    "orig_lon": 16.8465,
    "new_lat": 52.392626,
    "new_lon": 16.846137,
    "dist_m": 165,
    "query": "ul. Jeleniogórska, Poznań, Polska",
    "formatted": "Jeleniogórska, Poznań, Polska",
    "addr": {
      "street": "ul. Jeleniogórska",
      "osiedle": null,
      "city": "Poznań",
      "district": null,
      "confidence": "high"
    },
    "geo_city": "Poznań",
    "geo_district": null,
    "corrected": false
  },
  "67962737": {
    "skipped": "geocode_too_vague",
    "query": "ul. Lawendowa, Borkowice, Polska",
    "formatted": "Lawendowa, Polska",
    "addr": {
      "street": "ul. Lawendowa",
      "osiedle": null,
      "city": "Borkowice",
      "district": null,
      "confidence": "high"
    }
  },
  "66316048": {
    "orig_lat": 52.44821,
    "orig_lon": 16.96004,
    "new_lat": 52.449343,
    "new_lon": 16.958058,
    "dist_m": 184,
    "query": "ul. Bielicowa 2, Poznań, Polska",
    "formatted": "Bielicowa 2, 61-612 Poznań, Polska",
    "addr": {
      "street": "ul. Bielicowa 2",
      "osiedle": "Osiedle Witaj",
      "city": "Poznań",
      "district": "Naramowice",
      "confidence": "high"
    },
    "geo_city": "Poznań",
    "geo_district": null,
    "corrected": false
  },
  "67731312": {
    "orig_lat": 52.46202,
    "orig_lon": 16.89833,
    "new_lat": 52.463918,
    "new_lon": 16.899977,
    "dist_m": 239,
    "query": "ul. Teofila Mateckiego 20E, Poznań, Polska",
    "formatted": "Teofila Mateckiego 20E, 60-689 Poznań, Polska",
    "addr": {
      "street": "ul. Teofila Mateckiego 20E",
      "osiedle": null,
      "city": "Poznań",
      "district": "Piątkowo",
      "confidence": "high"
    },
    "geo_city": "Poznań",
    "geo_district": null,
    "corrected": true
  },
  "68158283": {
    "skipped": "low_confidence",
    "addr": {
      "street": null,
      "osiedle": null,
      "city": "okolice Poznania",
      "district": null,
      "confidence": "high"
    }
  },
  "68141745": {
    "skipped": "low_confidence",
    "addr": {
      "street": null,
      "osiedle": null,
      "city": "Rokietnica",
      "district": null,
      "confidence": "high"
    }
  },
  "68002952": {
    "orig_lat": 52.46281,
    "orig_lon": 16.8983,
    "new_lat": 52.462014,
    "new_lon": 16.898008,
    "dist_m": 91,
    "query": "ul. Mateckiego 4D, Poznań, Polska",
    "formatted": "Teofila Mateckiego 4D, 60-689 Poznań, Polska",
    "addr": {
      "street": "ul. Mateckiego 4D",
      "osiedle": "Osiedle Mateckiego 4ALL",
      "city": "Poznań",
      "district": "Piątkowo",
      "confidence": "high"
    },
    "geo_city": "Poznań",
    "geo_district": null,
    "corrected": false
  },
  "68019921": {
    "orig_lat": 52.3558,
    "orig_lon": 16.88343,
    "new_lat": 52.356736,
    "new_lon": 16.880584,
    "dist_m": 220,
    "query": "ul. Świerczewska, Luboń, Polska",
    "formatted": "Świerczewska, 61-001 Luboń, Polska",
    "addr": {
      "street": "ul. Świerczewska",
      "osiedle": null,
      "city": "Luboń",
      "district": null,
      "confidence": "high"
    },
    "geo_city": "Luboń",
    "geo_district": null,
    "corrected": true
  },
  "64454570": {
    "skipped": "low_confidence",
    "addr": {
      "street": null,
      "osiedle": null,
      "city": "Poznań",
      "district": null,
      "confidence": "high"
    }
  },
  "67926456": {
    "orig_lat": 52.35622,
    "orig_lon": 16.88329,
    "new_lat": 52.356736,
    "new_lon": 16.880584,
    "dist_m": 193,
    "query": "ul. Świerczewska, Luboń, Polska",
    "formatted": "Świerczewska, 61-001 Luboń, Polska",
    "addr": {
      "street": "ul. Świerczewska",
      "osiedle": null,
      "city": "Luboń",
      "district": null,
      "confidence": "high"
    },
    "geo_city": "Luboń",
    "geo_district": null,
    "corrected": false
  },
  "67784689": {
    "orig_lat": 52.35294,
    "orig_lon": 17.02679,
    "new_lat": 52.345319,
    "new_lon": 17.021437,
    "dist_m": 922,
    "query": "ul. Przyjaznej, Poznań, Polska",
    "formatted": "Przyjazna, 61-324 Poznań, Polska",
    "addr": {
      "street": "ul. Przyjaznej",
      "osiedle": null,
      "city": "Poznań",
      "district": "Szczepankowo",
      "confidence": "high"
    },
    "geo_city": "Poznań",
    "geo_district": null,
    "corrected": true
  },
  "65250178": {
    "orig_lat": 52.23241,
    "orig_lon": 16.81537,
    "new_lat": 52.232409,
    "new_lon": 16.814954,
    "dist_m": 28,
    "query": "ul. Czeremchowej, Krosinek, Polska",
    "formatted": "Czeremchowa, 62-050, Polska",
    "addr": {
      "street": "ul. Czeremchowej",
      "osiedle": null,
      "city": "Krosinek",
      "district": null,
      "confidence": "high"
    },
    "geo_city": "Powiat poznański",
    "geo_district": null,
    "corrected": false
  },
  "68182174": {
    "skipped": "geocode_too_vague",
    "query": "Lokum Luboń, Luboń, Polska",
    "formatted": "Luboń, Polska",
    "addr": {
      "street": null,
      "osiedle": "Lokum Luboń",
      "city": "Luboń",
      "district": null,
      "confidence": "high"
    }
  },
  "67910568": {
    "skipped": "low_confidence",
    "addr": {
      "street": null,
      "osiedle": null,
      "city": "miasto",
      "district": null,
      "confidence": "medium"
    }
  },
  "68182125": {
    "skipped": "geocode_too_vague",
    "query": "Lokum Luboń, Luboń, Polska",
    "formatted": "Luboń, Polska",
    "addr": {
      "street": null,
      "osiedle": "Lokum Luboń",
      "city": "Luboń",
      "district": null,
      "confidence": "high"
    }
  },
  "67941100": {
    "skipped": "low_confidence",
    "addr": {
      "street": null,
      "osiedle": null,
      "city": "Gortatów",
      "district": null,
      "confidence": "high"
    }
  },
  "68217155": {
    "orig_lat": 52.23283,
    "orig_lon": 16.82917,
    "new_lat": 52.236342,
    "new_lon": 16.836703,
    "dist_m": 645,
    "query": "ul. Strzelecka, Mosina, Polska",
    "formatted": "Strzelecka, 62-050 Mosina, Polska",
    "addr": {
      "street": "ul. Strzelecka",
      "osiedle": null,
      "city": "Mosina",
      "district": null,
      "confidence": "high"
    },
    "geo_city": "Mosina",
    "geo_district": null,
    "corrected": true
  },
  "67027171": {
    "orig_lat": 52.35432,
    "orig_lon": 17.1126,
    "new_lat": 52.354721,
    "new_lon": 17.111133,
    "dist_m": 109,
    "query": "Osiedle 4 Pory Roku, Gowarzewo, Polska",
    "formatted": "Zimowa, 63-004 Poznań, Polska",
    "addr": {
      "street": null,
      "osiedle": "Osiedle 4 Pory Roku",
      "city": "Gowarzewo",
      "district": null,
      "confidence": "high"
    },
    "geo_city": "Poznań",
    "geo_district": null,
    "corrected": false
  },
  "66106141": {
    "skipped": "geocode_too_vague",
    "query": "SVARAN, Swarzędz, Polska",
    "formatted": "Swarzędz, Polska",
    "addr": {
      "street": null,
      "osiedle": "SVARAN",
      "city": "Swarzędz",
      "district": null,
      "confidence": "high"
    }
  },
  "96610614100067": {
    "skipped": "geocode_too_vague",
    "query": "SVARAN, Swarzędz, Polska",
    "formatted": "Swarzędz, Polska",
    "addr": {
      "street": null,
      "osiedle": "SVARAN",
      "city": "Swarzędz",
      "district": null,
      "confidence": "high"
    }
  },
  "66985017": {
    "skipped": "geocode_too_vague",
    "query": "Refugium Natura, Świątniki, Polska",
    "formatted": "62-022 Świątniki, Polska",
    "addr": {
      "street": null,
      "osiedle": "Refugium Natura",
      "city": "Świątniki",
      "district": "gmina Mosina",
      "confidence": "high"
    }
  },
  "68050195": {
    "skipped": "geocode_too_vague",
    "query": "Oaza Gortatowo, Gortatowo, Polska",
    "formatted": "62-020, Polska",
    "addr": {
      "street": null,
      "osiedle": "Oaza Gortatowo",
      "city": "Gortatowo",
      "district": null,
      "confidence": "high"
    }
  },
  "68212423": {
    "skipped": "low_confidence",
    "addr": {
      "street": null,
      "osiedle": null,
      "city": "Słupia",
      "district": null,
      "confidence": "high"
    }
  },
  "67051891": {
    "orig_lat": 52.29356,
    "orig_lon": 16.96056,
    "new_lat": 52.29234,
    "new_lon": 16.958917,
    "dist_m": 176,
    "query": "ul. Wesoła, Daszewice, Polska",
    "formatted": "Wesoła, 61-160, Polska",
    "addr": {
      "street": "ul. Wesoła",
      "osiedle": null,
      "city": "Daszewice",
      "district": null,
      "confidence": "high"
    },
    "geo_city": "Powiat poznański",
    "geo_district": null,
    "corrected": false
  },
  "68183141": {
    "skipped": "geocode_too_vague",
    "query": "gmina Mosina, Daszewice, Polska",
    "formatted": "61-160 Daszewice, Polska",
    "addr": {
      "street": null,
      "osiedle": null,
      "city": "Daszewice",
      "district": "gmina Mosina",
      "confidence": "high"
    }
  },
  "63774661": {
    "skipped": "geocode_too_vague",
    "query": "ul. Paryskiej, Rokietnica, Polska",
    "formatted": "62-090 Rokietnica, Polska",
    "addr": {
      "street": "ul. Paryskiej",
      "osiedle": null,
      "city": "Rokietnica",
      "district": null,
      "confidence": "high"
    }
  },
  "67232398": {
    "orig_lat": 52.51717,
    "orig_lon": 16.73825,
    "new_lat": 52.515706,
    "new_lon": 16.739685,
    "dist_m": 190,
    "query": "ul. Koszycy, Rokietnica, Polska",
    "formatted": "Koszycy, 62-090 Rokietnica, Polska",
    "addr": {
      "street": "ul. Koszycy",
      "osiedle": "nowa inwestycja w Rokietnicy",
      "city": "Rokietnica",
      "district": null,
      "confidence": "high"
    },
    "geo_city": "Rokietnica",
    "geo_district": null,
    "corrected": false
  },
  "68002917": {
    "orig_lat": 52.46281,
    "orig_lon": 16.8983,
    "new_lat": 52.462014,
    "new_lon": 16.898008,
    "dist_m": 91,
    "query": "ul. Mateckiego 4D, Poznań, Polska",
    "formatted": "Teofila Mateckiego 4D, 60-689 Poznań, Polska",
    "addr": {
      "street": "ul. Mateckiego 4D",
      "osiedle": "Osiedle Mateckiego 4ALL",
      "city": "Poznań",
      "district": "Piątkowo",
      "confidence": "high"
    },
    "geo_city": "Poznań",
    "geo_district": null,
    "corrected": false
  },
  "67456861": {
    "orig_lat": 52.47224,
    "orig_lon": 17.21312,
    "new_lat": 52.472408,
    "new_lon": 17.214304,
    "dist_m": 82,
    "query": "Promno Park, Promno, Polska",
    "formatted": "Rzepichy, 62-007 Promno-Stacja, Polska",
    "addr": {
      "street": null,
      "osiedle": "Promno Park",
      "city": "Promno",
      "district": null,
      "confidence": "high"
    },
    "geo_city": "Promno-Stacja",
    "geo_district": null,
    "corrected": false
  },
  "67731310": {
    "orig_lat": 52.46202,
    "orig_lon": 16.89833,
    "new_lat": 52.463918,
    "new_lon": 16.899977,
    "dist_m": 239,
    "query": "ul. Teofila Mateckiego 20E, Poznań, Polska",
    "formatted": "Teofila Mateckiego 20E, 60-689 Poznań, Polska",
    "addr": {
      "street": "ul. Teofila Mateckiego 20E",
      "osiedle": null,
      "city": "Poznań",
      "district": "Piątkowo",
      "confidence": "high"
    },
    "geo_city": "Poznań",
    "geo_district": null,
    "corrected": true
  },
  "68221254": {
    "orig_lat": 52.51425,
    "orig_lon": 16.77852,
    "new_lat": 52.514251,
    "new_lon": 16.778527,
    "dist_m": 0,
    "query": "ul. Golfowa, Bytkowo, Polska",
    "formatted": "Golfowa, 62-090, Polska",
    "addr": {
      "street": "ul. Golfowa",
      "osiedle": null,
      "city": "Bytkowo",
      "district": null,
      "confidence": "high"
    },
    "geo_city": "Powiat poznański",
    "geo_district": null,
    "corrected": false
  },
  "65204646": {
    "skipped": "geocode_too_vague",
    "query": "ul. Wieruszowska, Zielona Góra, Polska",
    "formatted": "Zielona Góra, Polska",
    "addr": {
      "street": "ul. Wieruszowska",
      "osiedle": "Grunwald Park",
      "city": "Zielona Góra",
      "district": null,
      "confidence": "high"
    }
  },
  "68124806": {
    "orig_lat": 52.44484,
    "orig_lon": 17.00232,
    "new_lat": 52.445519,
    "new_lon": 17.001006,
    "dist_m": 117,
    "query": "Leśny Zakątek, Koziegłowy, Polska",
    "formatted": "Kwiatowa 21, 62-028 Koziegłowy, Polska",
    "addr": {
      "street": null,
      "osiedle": "Leśny Zakątek",
      "city": "Koziegłowy",
      "district": null,
      "confidence": "high"
    },
    "geo_city": "Koziegłowy",
    "geo_district": null,
    "corrected": false
  },
  "66610853": {
    "skipped": "geocode_too_vague",
    "query": "Rokietnica, Rogierówko, Polska",
    "formatted": "62-090 Rogierówko, Polska",
    "addr": {
      "street": null,
      "osiedle": null,
      "city": "Rogierówko",
      "district": "Rokietnica",
      "confidence": "high"
    }
  },
  "68196294": {
    "skipped": "low_confidence",
    "addr": {
      "street": null,
      "osiedle": null,
      "city": "Dopiewiec",
      "district": null,
      "confidence": "high"
    }
  },
  "68196289": {
    "skipped": "low_confidence",
    "addr": {
      "street": null,
      "osiedle": null,
      "city": "Konarzewo",
      "district": null,
      "confidence": "high"
    }
  },
  "68195755": {
    "skipped": "low_confidence",
    "addr": {
      "street": null,
      "osiedle": null,
      "city": "Dachowa",
      "district": null,
      "confidence": "high"
    }
  },
  "68046395": {
    "orig_lat": 52.51359,
    "orig_lon": 16.74704,
    "new_lat": 52.501214,
    "new_lon": 16.730949,
    "dist_m": 1755,
    "query": "Osiedle Gardenia, Rokietnica, Polska",
    "formatted": "Gajowa, 62-090 Rokietnica, Polska",
    "addr": {
      "street": null,
      "osiedle": "Osiedle Gardenia",
      "city": "Rokietnica",
      "district": null,
      "confidence": "high"
    },
    "geo_city": "Rokietnica",
    "geo_district": null,
    "corrected": true
  },
  "68046511": {
    "orig_lat": 52.51359,
    "orig_lon": 16.74704,
    "new_lat": 52.501214,
    "new_lon": 16.730949,
    "dist_m": 1755,
    "query": "Osiedle Gardenia, Rokietnica, Polska",
    "formatted": "Gajowa, 62-090 Rokietnica, Polska",
    "addr": {
      "street": null,
      "osiedle": "Osiedle Gardenia",
      "city": "Rokietnica",
      "district": null,
      "confidence": "high"
    },
    "geo_city": "Rokietnica",
    "geo_district": null,
    "corrected": true
  },
  "96804639500067": {
    "orig_lat": 52.51359,
    "orig_lon": 16.74704,
    "new_lat": 52.501214,
    "new_lon": 16.730949,
    "dist_m": 1755,
    "query": "Osiedle Gardenia, Rokietnica, Polska",
    "formatted": "Gajowa, 62-090 Rokietnica, Polska",
    "addr": {
      "street": null,
      "osiedle": "Osiedle Gardenia",
      "city": "Rokietnica",
      "district": null,
      "confidence": "high"
    },
    "geo_city": "Rokietnica",
    "geo_district": null,
    "corrected": true
  },
  "67089245": {
    "orig_lat": 52.49561,
    "orig_lon": 16.79521,
    "new_lat": 52.493636,
    "new_lon": 16.794586,
    "dist_m": 224,
    "query": "ul. Stajenna, Pawłowice, Polska",
    "formatted": "Stajenna, 62-090 Pawłowice, Polska",
    "addr": {
      "street": "ul. Stajenna",
      "osiedle": "Forall Osiedle Harmonia",
      "city": "Pawłowice",
      "district": "Rokietnica",
      "confidence": "high"
    },
    "geo_city": "Pawłowice",
    "geo_district": null,
    "corrected": true
  },
  "68141088": {
    "orig_lat": 52.34075,
    "orig_lon": 16.6988,
    "new_lat": 52.340751,
    "new_lon": 16.698799,
    "dist_m": 0,
    "query": "Dopiewska, Konarzewo, Polska",
    "formatted": "Dopiewska, 62-070 Konarzewo, Polska",
    "addr": {
      "street": "Dopiewska",
      "osiedle": null,
      "city": "Konarzewo",
      "district": null,
      "confidence": "high"
    },
    "geo_city": "Konarzewo",
    "geo_district": null,
    "corrected": false
  },
  "96708924500067": {
    "orig_lat": 52.49561,
    "orig_lon": 16.79521,
    "new_lat": 52.493636,
    "new_lon": 16.794586,
    "dist_m": 224,
    "query": "ul. Stajenna, Pawłowice, Polska",
    "formatted": "Stajenna, 62-090 Pawłowice, Polska",
    "addr": {
      "street": "ul. Stajenna",
      "osiedle": "Forall Osiedle Harmonia",
      "city": "Pawłowice",
      "district": "Rokietnica",
      "confidence": "high"
    },
    "geo_city": "Pawłowice",
    "geo_district": null,
    "corrected": true
  },
  "68127815": {
    "orig_lat": 52.37378,
    "orig_lon": 16.68017,
    "new_lat": 52.373784,
    "new_lon": 16.680174,
    "dist_m": 1,
    "query": "Bajkowa, Dopiewiec, Polska",
    "formatted": "Bajkowa, 62-070 Dopiewiec, Polska",
    "addr": {
      "street": "Bajkowa",
      "osiedle": null,
      "city": "Dopiewiec",
      "district": null,
      "confidence": "high"
    },
    "geo_city": "Dopiewiec",
    "geo_district": null,
    "corrected": false
  },
  "66734907": {
    "orig_lat": 52.50106,
    "orig_lon": 16.72828,
    "new_lat": 52.501214,
    "new_lon": 16.730949,
    "dist_m": 181,
    "query": "Osiedle Gardenia, Rokietnica, Polska",
    "formatted": "Gajowa, 62-090 Rokietnica, Polska",
    "addr": {
      "street": null,
      "osiedle": "Osiedle Gardenia",
      "city": "Rokietnica",
      "district": null,
      "confidence": "high"
    },
    "geo_city": "Rokietnica",
    "geo_district": null,
    "corrected": false
  },
  "68046444": {
    "orig_lat": 52.51359,
    "orig_lon": 16.74704,
    "new_lat": 52.501214,
    "new_lon": 16.730949,
    "dist_m": 1755,
    "query": "Osiedle Gardenia, Rokietnica, Polska",
    "formatted": "Gajowa, 62-090 Rokietnica, Polska",
    "addr": {
      "street": null,
      "osiedle": "Osiedle Gardenia",
      "city": "Rokietnica",
      "district": null,
      "confidence": "high"
    },
    "geo_city": "Rokietnica",
    "geo_district": null,
    "corrected": true
  },
  "67562516": {
    "skipped": "geocode_too_vague",
    "query": "Dachowa, Dachowa, Polska",
    "formatted": "Dachowa, Polska",
    "addr": {
      "street": null,
      "osiedle": "Dachowa",
      "city": "Dachowa",
      "district": null,
      "confidence": "high"
    }
  },
  "67801699": {
    "orig_lat": 52.50471,
    "orig_lon": 16.72862,
    "new_lat": 52.503077,
    "new_lon": 16.728227,
    "dist_m": 184,
    "query": "ul. Leśnej, Rokietnica, Polska",
    "formatted": "Leśna, 62-090 Rokietnica, Polska",
    "addr": {
      "street": "ul. Leśnej",
      "osiedle": null,
      "city": "Rokietnica",
      "district": null,
      "confidence": "high"
    },
    "geo_city": "Rokietnica",
    "geo_district": null,
    "corrected": false
  },
  "68015635": {
    "orig_lat": 52.50458,
    "orig_lon": 16.72952,
    "new_lat": 52.503077,
    "new_lon": 16.728227,
    "dist_m": 189,
    "query": "ul. Leśnej, Rokietnica, Polska",
    "formatted": "Leśna, 62-090 Rokietnica, Polska",
    "addr": {
      "street": "ul. Leśnej",
      "osiedle": null,
      "city": "Rokietnica",
      "district": null,
      "confidence": "high"
    },
    "geo_city": "Rokietnica",
    "geo_district": null,
    "corrected": false
  },
  "68013667": {
    "skipped": "low_confidence",
    "addr": {
      "street": null,
      "osiedle": null,
      "city": "Poznań",
      "district": null,
      "confidence": "medium"
    }
  },
  "68221058": {
    "skipped": "geocode_too_vague",
    "query": "Osiedle Natura, Biedrusko, Polska",
    "formatted": "Biedrusko, Polska",
    "addr": {
      "street": null,
      "osiedle": "Osiedle Natura",
      "city": "Biedrusko",
      "district": null,
      "confidence": "high"
    }
  },
  "65204656": {
    "skipped": "geocode_too_vague",
    "query": "ul. Wieruszowska, Zielona Góra, Polska",
    "formatted": "Zielona Góra, Polska",
    "addr": {
      "street": "ul. Wieruszowska",
      "osiedle": "Grunwald Park",
      "city": "Zielona Góra",
      "district": null,
      "confidence": "high"
    }
  },
  "68218106": {
    "orig_lat": 52.29333,
    "orig_lon": 17.00515,
    "new_lat": 52.2962,
    "new_lon": 17.007759,
    "dist_m": 365,
    "query": "ul. Choinkowa, Szczytniki, Polska",
    "formatted": "Choinkowa, 62-023 Szczytniki, Polska",
    "addr": {
      "street": "ul. Choinkowa",
      "osiedle": null,
      "city": "Szczytniki",
      "district": null,
      "confidence": "high"
    },
    "geo_city": "Szczytniki",
    "geo_district": null,
    "corrected": true
  },
  "68215459": {
    "orig_lat": 52.29333,
    "orig_lon": 17.00515,
    "new_lat": 52.2962,
    "new_lon": 17.007759,
    "dist_m": 365,
    "query": "ul. Choinkowa, Szczytniki, Polska",
    "formatted": "Choinkowa, 62-023 Szczytniki, Polska",
    "addr": {
      "street": "ul. Choinkowa",
      "osiedle": null,
      "city": "Szczytniki",
      "district": null,
      "confidence": "high"
    },
    "geo_city": "Szczytniki",
    "geo_district": null,
    "corrected": true
  },
  "68212610": {
    "orig_lat": 52.29333,
    "orig_lon": 17.00515,
    "new_lat": 52.2962,
    "new_lon": 17.007759,
    "dist_m": 365,
    "query": "ul. Choinkowa, Szczytniki, Polska",
    "formatted": "Choinkowa, 62-023 Szczytniki, Polska",
    "addr": {
      "street": "ul. Choinkowa",
      "osiedle": null,
      "city": "Szczytniki",
      "district": null,
      "confidence": "high"
    },
    "geo_city": "Szczytniki",
    "geo_district": null,
    "corrected": true
  },
  "68212531": {
    "orig_lat": 52.29489,
    "orig_lon": 17.00743,
    "new_lat": 52.2962,
    "new_lon": 17.007759,
    "dist_m": 147,
    "query": "Choinkowa, Szczytniki, Polska",
    "formatted": "Choinkowa, 62-023 Szczytniki, Polska",
    "addr": {
      "street": "Choinkowa",
      "osiedle": null,
      "city": "Szczytniki",
      "district": "Kórnik",
      "confidence": "high"
    },
    "geo_city": "Szczytniki",
    "geo_district": null,
    "corrected": false
  },
  "68159653": {
    "skipped": "low_confidence",
    "addr": {
      "street": null,
      "osiedle": null,
      "city": "Dąbrówka",
      "district": null,
      "confidence": "high"
    }
  },
  "65667592": {
    "skipped": "low_confidence",
    "addr": {
      "street": null,
      "osiedle": null,
      "city": "Poznań",
      "district": null,
      "confidence": "high"
    }
  },
  "68196293": {
    "skipped": "low_confidence",
    "addr": {
      "street": null,
      "osiedle": null,
      "city": "Chomęcice",
      "district": null,
      "confidence": "high"
    }
  },
  "67853846": {
    "skipped": "low_confidence",
    "addr": {
      "street": null,
      "osiedle": null,
      "city": "X",
      "district": null,
      "confidence": "high"
    }
  },
  "66613938": {
    "skipped": "low_confidence",
    "addr": {
      "street": null,
      "osiedle": null,
      "city": "Czerwiec",
      "district": null,
      "confidence": "high"
    }
  },
  "68002954": {
    "orig_lat": 52.46281,
    "orig_lon": 16.8983,
    "new_lat": 52.462014,
    "new_lon": 16.898008,
    "dist_m": 91,
    "query": "ul. Mateckiego 4D, Poznań, Polska",
    "formatted": "Teofila Mateckiego 4D, 60-689 Poznań, Polska",
    "addr": {
      "street": "ul. Mateckiego 4D",
      "osiedle": "Osiedle Mateckiego 4ALL",
      "city": "Poznań",
      "district": "Piątkowo",
      "confidence": "high"
    },
    "geo_city": "Poznań",
    "geo_district": null,
    "corrected": false
  },
  "68195662": {
    "orig_lat": 52.35975,
    "orig_lon": 17.01966,
    "new_lat": 52.339577,
    "new_lon": 16.984925,
    "dist_m": 3255,
    "query": "Szczepankowo- Spławie- Krzesiny, Poznań, Polska",
    "formatted": "Krzesiny, Poznań, Polska",
    "addr": {
      "street": null,
      "osiedle": "Szczepankowo- Spławie- Krzesiny",
      "city": "Poznań",
      "district": null,
      "confidence": "high"
    },
    "geo_city": "Poznań",
    "geo_district": null,
    "corrected": true
  },
  "67445458": {
    "orig_lat": 52.44888,
    "orig_lon": 16.89124,
    "new_lat": 52.448794,
    "new_lon": 16.891269,
    "dist_m": 10,
    "query": "Strzeszyńska 77, Poznań, Polska",
    "formatted": "Strzeszyńska 77, 60-479 Poznań, Polska",
    "addr": {
      "street": null,
      "osiedle": "Strzeszyńska 77",
      "city": "Poznań",
      "district": null,
      "confidence": "high"
    },
    "geo_city": "Poznań",
    "geo_district": null,
    "corrected": false
  },
  "68223923": {
    "skipped": "low_confidence",
    "addr": {
      "street": null,
      "osiedle": null,
      "city": "miasto",
      "district": null,
      "confidence": "medium"
    }
  },
  "68139761": {
    "skipped": "low_confidence",
    "addr": {
      "street": null,
      "osiedle": null,
      "city": "Morasko",
      "district": null,
      "confidence": "medium"
    }
  },
  "68220080": {
    "orig_lat": 52.4918,
    "orig_lon": 16.93791,
    "new_lat": 52.491766,
    "new_lon": 16.939534,
    "dist_m": 110,
    "query": "Lubczykowa Góra 3, Poznań, Polska",
    "formatted": "Arnikowa 9, 60-101 Poznań, Polska",
    "addr": {
      "street": "Lubczykowa Góra 3",
      "osiedle": "Lubczykowa Góra",
      "city": "Poznań",
      "district": null,
      "confidence": "high"
    },
    "geo_city": "Poznań",
    "geo_district": null,
    "corrected": false
  },
  "68204767": {
    "orig_lat": 52.36086,
    "orig_lon": 16.74484,
    "new_lat": 52.360857,
    "new_lon": 16.744842,
    "dist_m": 0,
    "query": "ul. Fiołkowa, Gołuski, Polska",
    "formatted": "Fiołkowa, 62-070 Gołuski, Polska",
    "addr": {
      "street": "ul. Fiołkowa",
      "osiedle": null,
      "city": "Gołuski",
      "district": null,
      "confidence": "high"
    },
    "geo_city": "Gołuski",
    "geo_district": null,
    "corrected": false
  },
  "68196288": {
    "skipped": "low_confidence",
    "addr": {
      "street": null,
      "osiedle": null,
      "city": "Chomęcice",
      "district": null,
      "confidence": "high"
    }
  },
  "68195764": {
    "skipped": "low_confidence",
    "addr": {
      "street": null,
      "osiedle": null,
      "city": "Kamionki",
      "district": null,
      "confidence": "high"
    }
  },
  "68146623": {
    "skipped": "low_confidence",
    "addr": {
      "street": null,
      "osiedle": null,
      "city": "Kamionki",
      "district": null,
      "confidence": "high"
    }
  },
  "68143821": {
    "orig_lat": 52.36086,
    "orig_lon": 16.74484,
    "new_lat": 52.360857,
    "new_lon": 16.744842,
    "dist_m": 0,
    "query": "ul. Fiołkowej, Gołuski, Polska",
    "formatted": "Fiołkowa, 62-070 Gołuski, Polska",
    "addr": {
      "street": "ul. Fiołkowej",
      "osiedle": null,
      "city": "Gołuski",
      "district": null,
      "confidence": "high"
    },
    "geo_city": "Gołuski",
    "geo_district": null,
    "corrected": false
  },
  "68127895": {
    "orig_lat": 52.29688,
    "orig_lon": 17.07484,
    "new_lat": 52.296874,
    "new_lon": 17.074834,
    "dist_m": 1,
    "query": "ul. Kwitnącej Wiśni, Robakowo, Polska",
    "formatted": "Kwitnącej Wiśni, 62-023, Polska",
    "addr": {
      "street": "ul. Kwitnącej Wiśni",
      "osiedle": null,
      "city": "Robakowo",
      "district": "gmina Kórnik",
      "confidence": "high"
    },
    "geo_city": "Powiat poznański",
    "geo_district": null,
    "corrected": false
  },
  "66396664": {
    "skipped": "low_confidence",
    "addr": {
      "street": null,
      "osiedle": null,
      "city": "Robakowo",
      "district": null,
      "confidence": "high"
    }
  },
  "67440345": {
    "skipped": "geocode_too_vague",
    "query": "ul. Dworcowa 4b/1, Rabowice, Polska",
    "formatted": "Rabowice, Polska",
    "addr": {
      "street": "ul. Dworcowa 4b/1",
      "osiedle": "Zielone Rabowice",
      "city": "Rabowice",
      "district": "Swarzędz",
      "confidence": "high"
    }
  },
  "67445461": {
    "orig_lat": 52.44888,
    "orig_lon": 16.89124,
    "new_lat": 52.448794,
    "new_lon": 16.891269,
    "dist_m": 10,
    "query": "Strzeszyńska 77, Poznań, Polska",
    "formatted": "Strzeszyńska 77, 60-479 Poznań, Polska",
    "addr": {
      "street": "Strzeszyńska 77",
      "osiedle": "Osiedle Strzeszyńska 77",
      "city": "Poznań",
      "district": "Podolany",
      "confidence": "high"
    },
    "geo_city": "Poznań",
    "geo_district": null,
    "corrected": false
  },
  "67445452": {
    "orig_lat": 52.44888,
    "orig_lon": 16.89124,
    "new_lat": 52.448794,
    "new_lon": 16.891269,
    "dist_m": 10,
    "query": "Strzeszyńska 77, Poznań, Polska",
    "formatted": "Strzeszyńska 77, 60-479 Poznań, Polska",
    "addr": {
      "street": null,
      "osiedle": "Strzeszyńska 77",
      "city": "Poznań",
      "district": null,
      "confidence": "high"
    },
    "geo_city": "Poznań",
    "geo_district": null,
    "corrected": false
  },
  "68222476": {
    "skipped": "low_confidence",
    "addr": {
      "street": null,
      "osiedle": null,
      "city": "ciche osiedle",
      "district": null,
      "confidence": "low"
    }
  },
  "68157907": {
    "skipped": "low_confidence",
    "addr": {
      "street": null,
      "osiedle": null,
      "city": "Plewiska",
      "district": null,
      "confidence": "high"
    }
  },
  "96822247600067": {
    "skipped": "low_confidence",
    "addr": {
      "street": null,
      "osiedle": null,
      "city": "ciche osiedle",
      "district": null,
      "confidence": "medium"
    }
  },
  "68206623": {
    "orig_lat": 52.4922,
    "orig_lon": 16.73335,
    "new_lat": 52.490815,
    "new_lon": 16.735142,
    "dist_m": 196,
    "query": "ul. Teatralnej, Napachanie, Polska",
    "formatted": "Teatralna, 62-090 Napachanie, Polska",
    "addr": {
      "street": "ul. Teatralnej",
      "osiedle": "Osiedle Zielone Wzgórze",
      "city": "Napachanie",
      "district": null,
      "confidence": "high"
    },
    "geo_city": "Napachanie",
    "geo_district": null,
    "corrected": false
  },
  "67829051": {
    "skipped": "low_confidence",
    "addr": {
      "street": null,
      "osiedle": null,
      "city": "Puszcza Zielonka",
      "district": null,
      "confidence": "high"
    }
  },
  "68135525": {
    "orig_lat": 52.4922,
    "orig_lon": 16.73335,
    "new_lat": 52.490815,
    "new_lon": 16.735142,
    "dist_m": 196,
    "query": "ul. Teatralnej, Napachanie, Polska",
    "formatted": "Teatralna, 62-090 Napachanie, Polska",
    "addr": {
      "street": "ul. Teatralnej",
      "osiedle": "Osiedle Zielone Wzgórze",
      "city": "Napachanie",
      "district": null,
      "confidence": "high"
    },
    "geo_city": "Napachanie",
    "geo_district": null,
    "corrected": false
  },
  "68119530": {
    "orig_lat": 52.4922,
    "orig_lon": 16.73335,
    "new_lat": 52.490815,
    "new_lon": 16.735142,
    "dist_m": 196,
    "query": "ul. Teatralnej, Napachanie, Polska",
    "formatted": "Teatralna, 62-090 Napachanie, Polska",
    "addr": {
      "street": "ul. Teatralnej",
      "osiedle": "Osiedle Zielone Wzgórze",
      "city": "Napachanie",
      "district": null,
      "confidence": "high"
    },
    "geo_city": "Napachanie",
    "geo_district": null,
    "corrected": false
  },
  "68088281": {
    "skipped": "low_confidence",
    "addr": {
      "street": null,
      "osiedle": null,
      "city": "Napachanie",
      "district": null,
      "confidence": "high"
    }
  },
  "68044087": {
    "orig_lat": 52.4922,
    "orig_lon": 16.73335,
    "new_lat": 52.490815,
    "new_lon": 16.735142,
    "dist_m": 196,
    "query": "ul. Teatralnej, Napachanie, Polska",
    "formatted": "Teatralna, 62-090 Napachanie, Polska",
    "addr": {
      "street": "ul. Teatralnej",
      "osiedle": "Osiedle Zielone Wzgórze",
      "city": "Napachanie",
      "district": null,
      "confidence": "high"
    },
    "geo_city": "Napachanie",
    "geo_district": null,
    "corrected": false
  },
  "67916078": {
    "orig_lat": 52.4922,
    "orig_lon": 16.73335,
    "new_lat": 52.490815,
    "new_lon": 16.735142,
    "dist_m": 196,
    "query": "ul. Teatralnej, Napachanie, Polska",
    "formatted": "Teatralna, 62-090 Napachanie, Polska",
    "addr": {
      "street": "ul. Teatralnej",
      "osiedle": "Osiedle Zielone Wzgórze",
      "city": "Napachanie",
      "district": null,
      "confidence": "high"
    },
    "geo_city": "Napachanie",
    "geo_district": null,
    "corrected": false
  },
  "67981069": {
    "orig_lat": 52.4922,
    "orig_lon": 16.73335,
    "new_lat": 52.490815,
    "new_lon": 16.735142,
    "dist_m": 196,
    "query": "ul. Teatralnej, Napachanie, Polska",
    "formatted": "Teatralna, 62-090 Napachanie, Polska",
    "addr": {
      "street": "ul. Teatralnej",
      "osiedle": "Osiedle Zielone Wzgórze",
      "city": "Napachanie",
      "district": null,
      "confidence": "high"
    },
    "geo_city": "Napachanie",
    "geo_district": null,
    "corrected": false
  },
  "67974417": {
    "orig_lat": 52.4986,
    "orig_lon": 16.73566,
    "new_lat": 52.490815,
    "new_lon": 16.735142,
    "dist_m": 866,
    "query": "ul. Teatralnej, Napachanie, Polska",
    "formatted": "Teatralna, 62-090 Napachanie, Polska",
    "addr": {
      "street": "ul. Teatralnej",
      "osiedle": "Zielone Wzgórze",
      "city": "Napachanie",
      "district": null,
      "confidence": "high"
    },
    "geo_city": "Napachanie",
    "geo_district": null,
    "corrected": true
  },
  "67880259": {
    "skipped": "geocode_too_vague",
    "query": "Zielone Wzgórze, Napachanie, Polska",
    "formatted": "62-090 Napachanie, Polska",
    "addr": {
      "street": null,
      "osiedle": "Zielone Wzgórze",
      "city": "Napachanie",
      "district": null,
      "confidence": "high"
    }
  },
  "68167193": {
    "skipped": "low_confidence",
    "addr": {
      "street": null,
      "osiedle": null,
      "city": "Jaszkowo",
      "district": null,
      "confidence": "high"
    }
  },
  "65204707": {
    "skipped": "geocode_too_vague",
    "query": "ul. Wieruszowska, Zielona Góra, Polska",
    "formatted": "Zielona Góra, Polska",
    "addr": {
      "street": "ul. Wieruszowska",
      "osiedle": "Grunwald Park",
      "city": "Zielona Góra",
      "district": null,
      "confidence": "high"
    }
  },
  "66857797": {
    "orig_lat": 52.24321,
    "orig_lon": 16.85196,
    "new_lat": 52.22348,
    "new_lon": 16.828369,
    "dist_m": 2719,
    "query": "ul. Kamiennej 15, Krosno, Polska",
    "formatted": "Kamienna 15, 62-050 Krosno, Polska",
    "addr": {
      "street": "ul. Kamiennej 15",
      "osiedle": null,
      "city": "Krosno",
      "district": "gm. Mosina",
      "confidence": "high"
    },
    "geo_city": "Krosno",
    "geo_district": null,
    "corrected": true
  },
  "67508127": {
    "skipped": "low_confidence",
    "addr": {
      "street": null,
      "osiedle": null,
      "city": "Zieliniec",
      "district": null,
      "confidence": "high"
    }
  },
  "67817810": {
    "orig_lat": 52.47088,
    "orig_lon": 16.98809,
    "new_lat": 52.470878,
    "new_lon": 16.988709,
    "dist_m": 42,
    "query": "ul. Wschodnia 14, Czerwonak, Polska",
    "formatted": "Wschodnia 14, 62-004 Czerwonak, Polska",
    "addr": {
      "street": "ul. Wschodnia 14",
      "osiedle": null,
      "city": "Czerwonak",
      "district": null,
      "confidence": "high"
    },
    "geo_city": "Czerwonak",
    "geo_district": null,
    "corrected": false
  },
  "68195760": {
    "skipped": "low_confidence",
    "addr": {
      "street": null,
      "osiedle": null,
      "city": "Dachowa",
      "district": null,
      "confidence": "high"
    }
  },
  "68127992": {
    "orig_lat": 52.30969,
    "orig_lon": 17.06432,
    "new_lat": 52.301737,
    "new_lon": 17.071469,
    "dist_m": 1009,
    "query": "ul. Osiedle Życzliwe 29, Dachowa, Polska",
    "formatted": "Osiedle Życzliwe 29, 62-023 Dachowa, Polska",
    "addr": {
      "street": "ul. Osiedle Życzliwe 29",
      "osiedle": null,
      "city": "Dachowa",
      "district": null,
      "confidence": "high"
    },
    "geo_city": "Dachowa",
    "geo_district": null,
    "corrected": true
  },