id,type,title,area_m2,rooms,floor,price_zl,price_per_m2,street,district,city,project,lat,lon,dist_km,dist_tram,tram_name,drive_tram_km,drive_tram_name,drive_rail_km,drive_rail_name,drive_ratusz_km,url
66293361,mieszkanie,4-pokojowe mieszkanie 80m2 + balkon,80.8,4,1,,,28 czerwca 1956 r.,Dębiec,Poznań,28 czerwca 1956 r.,52.36733,16.90355,5.0,0.63,Dębiec PKM,0.69,Dębiec PKM,2.77,Poznań Górczyn,5.83,https://www.otodom.pl/pl/oferta/4-pokojowe-mieszkanie-80m2-balkon-ID4u9WL
66707014,mieszkanie,Smardzewska 8 | mieszkanie 4-pok. | A/A/4/1.5,81.58,4,1,,,ul. Smardzewska,os. Mikołaja Kopernika,Poznań,Smardzewska 8,52.38921,16.85909,5.5,0.34,Węgorka,0.88,Rondo Skubiszewskiego,4.58,Poznań Górczyn,7.1,https://www.otodom.pl/pl/oferta/smardzewska-8-mieszkanie-4-pok-a-a-4-1-5-ID4wTxA
66293561,mieszkanie,3-pokojowe mieszkanie 81m2 + loggia Bezpośrednio,81.7,3,2,,,28 czerwca 1956 r.,Dębiec,Poznań,28 czerwca 1956 r.,52.36733,16.90355,5.0,0.63,Dębiec PKM,0.69,Dębiec PKM,2.77,Poznań Górczyn,5.83,https://www.otodom.pl/pl/oferta/3-pokojowe-mieszkanie-81m2-loggia-bezposrednio-ID4u9YZ
67717244,mieszkanie,5-pokojowe mieszkanie 85m2 + ogródek Bez Prowizji,85.09,5,0,,,ul. Miśnieńska,Junikowo,Poznań,Junique II,52.3796,16.84101,7.0,0.62,Junikowo,1.28,Cmentarna,4.39,Poznań Górczyn,9.23,https://www.otodom.pl/pl/oferta/5-pokojowe-mieszkanie-85m2-ogrodek-bez-prowizji-ID4A8lC
67232748,mieszkanie,4-pokojowe mieszkanie 87m2 + 2 balkony,87.49,4,3,,,ul. Niedziałkowskiego,Wilda,Poznań,Vilda Arte,52.39885,16.91957,1.4,0.23,Św. Czesława,0.45,Św. Czesława,1.12,Poznań Główny,2.46,https://www.otodom.pl/pl/oferta/4-pokojowe-mieszkanie-87m2-2-balkony-ID4y6ja
66618907,dom,Dom Kórnik Pompa ciepła Fotowoltaika dom energooszczędny,80.51,4,,489000,6074,pl. Browarowy,Kórnik,Kórnik,,52.24811,17.08378,20.5,15.87,Franowo,18.58,Szwedzka,7.26,Gądki,22.88,https://www.otodom.pl/pl/oferta/dom-kornik-pompa-ciepla-fotowoltaika-dom-energooszczedny-ID4wvCw
68061337,dom,"Dom 81 m², działka 400m2, szynobus, światłowód, sklep, szkoła, Puszcza",81,3,,509000,6284,ul. Kozakowa,Łopuchowo,Łopuchowo,,52.61476,17.09083,25.3,20.29,Błażeja,26.38,Błażeja,9.21,Murowana Goślina,31.91,https://www.otodom.pl/pl/oferta/dom-81-m-dzialka-400m2-szynobus-swiatlowod-sklep-szkola-puszcza-ID4BzRw
67370417,dom,"Blisko lasu, 600 m od Pkp, Nowe Osiedle!!!",81,3,,509000,6284,,Łopuchowo,Łopuchowo,,52.61477,17.08655,25.2,20.15,Błażeja,26.57,Błażeja,9.4,Murowana Goślina,32.1,https://www.otodom.pl/pl/oferta/blisko-lasu-600-m-od-pkp-nowe-osiedle-ID4yG7D
68147106,dom,"Dom, 120 m², Kleszczewo",120,4,,520000,4333,,Kleszczewo,Kleszczewo,,52.33355,17.16965,18.1,12.64,Franowo,19.17,Szwedzka,10.73,Swarzędz,23.47,https://www.otodom.pl/pl/oferta/dom-120-m-kleszczewo-ID4BVaS
66837817,dom,DOM w cenie mieszkania !!!,87,4,,525000,6034,,Gowarzewo,Gowarzewo,,52.36452,17.12451,13.8,8.6,Franowo,12.65,Franowo,6.04,Swarzędz,17.24,https://www.otodom.pl/pl/oferta/dom-w-cenie-mieszkania-ID4vrzj
68175558,dom,DOM w cenie mieszkania !!! Pompa Ciepła | Ogrzewanie podłogowe | Taras,87,3,,525000,6034,,Kruszewnia,Swarzędz,,52.3758,17.10503,12.2,7.1,Franowo,10.96,Franowo,4.36,Swarzędz,15.56,https://www.otodom.pl/pl/oferta/dom-w-cenie-mieszkania-pompa-ciepla-ogrzewanie-podlogowe-taras-ID4C3zM
67794707,dom,DOM w cenie mieszkania !!! Pompa Ciepła,87,3,,525000,6034,,Zalasewo,Zalasewo,,52.38865,17.07588,9.9,5.15,Franowo,7.43,Franowo,2.15,Swarzędz,12.55,https://www.otodom.pl/pl/oferta/dom-w-cenie-mieszkania-pompa-ciepla-ID4Asw1
66668798,dom,"Bezpośrednio. Dom 83,64 m². Ogród 230 m².",83.64,4,,529000,6325,,Trzek,Trzek,,52.35919,17.15173,15.8,10.54,Franowo,14.64,Franowo,8.03,Swarzędz,19.23,https://www.otodom.pl/pl/oferta/bezposrednio-dom-83-64-m-ogrod-230-m-ID4wJBc
67460485,dom,Trzek | Kameralne Osiedle | od 60m2,101.5,3,,529000,5212,Czereśniowa,Trzek,Trzek,,52.35643,17.17445,17.3,12.11,Franowo,17.65,Miłostowo,11.66,Swarzędz,24.69,https://www.otodom.pl/pl/oferta/trzek-kameralne-osiedle-od-60m2-ID4z3yl
65550966,mieszkanie,Nowe mieszkanie 4 pokojowe - dostępne od ręki,85.7,4,1,537000,6266,,Robakowo,Robakowo,,52.30962,17.07944,14.8,9.61,Franowo,12.92,Szwedzka,3.86,Gądki,17.22,https://www.otodom.pl/pl/oferta/nowe-mieszkanie-4-pokojowe-dostepne-od-reki-ID4r2NE
65050216,mieszkanie,"Mieszkanie 4-pokojowe + taras! POMPA CIEPŁA, KLIMATYZACJA",85.7,4,1,537000,6266,,Robakowo,Robakowo,,52.29594,17.06865,15.5,10.57,Franowo,13.89,Szwedzka,2.49,Gądki,18.19,https://www.otodom.pl/pl/oferta/mieszkanie-4-pokojowe-taras-pompa-ciepla-klimatyzacja-ID4oVx2
62368155,mieszkanie,PROMOCJA - Mieszkanie 4-pokojowe + taras! POMPA CIEPŁA I KLIMATYZACJA,85.7,4,1,537000,6266,,Robakowo,Robakowo,,52.29594,17.06865,15.5,10.57,Franowo,13.89,Szwedzka,2.49,Gądki,18.19,https://www.otodom.pl/pl/oferta/promocja-mieszkanie-4-pokojowe-taras-pompa-ciepla-i-klimatyzacja-ID4dGNZ
68155019,dom,"Dom 82m2 (parter, piętro, poddasze), blisko autobus, Biedronka",82,3,,539000,6573,ul. Miła,Gowarzewo,Gowarzewo,,52.36524,17.13404,14.4,9.22,Franowo,13.53,Franowo,6.93,Swarzędz,18.13,https://www.otodom.pl/pl/oferta/dom-82m2-parter-pietro-poddasze-blisko-autobus-biedronka-ID4BYew
67961172,dom,"NOWE Domy w MALOWNICZEJ Lokalizacji !! 89,88m2",89.88,4,,539000,5997,,Kórnik,Kórnik,,52.24811,17.08378,20.5,15.87,Franowo,18.58,Szwedzka,7.26,Gądki,22.88,https://www.otodom.pl/pl/oferta/nowe-domy-w-malowniczej-lokalizacji-89-88m2-ID4B9NV
67961138,dom,"Nowe domy w malowniczej lokalizacji  ! 89,88m2",89.88,4,,539000,5997,,Radzewo,Radzewo,,52.2096,17.03253,23.1,18.94,Unii Lubelskiej,27.42,Franowo,15.27,Gądki,30.89,https://www.otodom.pl/pl/oferta/nowe-domy-w-malowniczej-lokalizacji-89-88m2-ID4B9No
68147465,dom,Nowe bliźniaki w doskonałej cenie!,96,5,,540000,5625,,Pecna,Pecna,,52.18719,16.78833,26.5,22.07,Junikowo,25.36,Dębiec PKM,8.23,Czempiń,30.31,https://www.otodom.pl/pl/oferta/nowe-blizniaki-w-doskonalej-cenie-ID4BVgF
67803537,dom,FUNKCJONALNY NOWOCZESNY DOM BLISKO JEZIORA | OGRÓD | TARAS |REZERWACJA,85.8,5,,540000,6294,,Kalwy,Kalwy,,52.40293,16.60456,22.3,15.76,Junikowo,18.66,Cmentarna,10.71,Buk,27.68,https://www.otodom.pl/pl/oferta/funkcjonalny-nowoczesny-dom-blisko-jeziora-ogrod-taras-rezerwacja-ID4AuNr
96780353700067,dom,FUNKCJONALNY NOWOCZESNY DOM BLISKO JEZIORA | OGRÓD | TARAS |REZERWACJA,85.8,5,,540000,6294,,Kalwy,Kalwy,,52.40293,16.60456,22.3,15.76,Junikowo,18.66,Cmentarna,10.71,Buk,27.68,https://www.otodom.pl/pl/oferta/funkcjonalny-nowoczesny-dom-blisko-jeziora-ogrod-taras-rezerwacja-ID4AuNr
67649529,mieszkanie,Mieszkanie z ogrodem w inwestycji Nova Dachowa| B2,80.29,4,0,546774.9,6810,ul. Kręta,Dachowa,Dachowa,,52.30029,17.07803,15.5,10.45,Franowo,13.79,Szwedzka,3.61,Gądki,18.09,https://www.otodom.pl/pl/oferta/mieszkanie-z-ogrodem-w-inwestycji-nova-dachowa-b2-ID4zQJr
47932016,mieszkanie,Mieszkania Sierosław,88,4,1,549000,6239,ul. Pokrzywnicka,Sierosław,Sierosław,,52.40255,16.68012,17.2,10.7,Junikowo,13.58,Cmentarna,10.22,Palędzie,22.6,https://www.otodom.pl/pl/oferta/mieszkania-sieroslaw-ID3f7j2
53862336,dom,Domy Kórnik,88,4,,549000,6239,,Kórnik,Kórnik,,52.22435,17.08657,22.9,18.42,Franowo,23.41,Szwedzka,9.91,Pierzchno,27.71,https://www.otodom.pl/pl/oferta/domy-kornik-ID3E03m
63824262,dom,Domy Sierosław,88,4,,549000,6239,,Sierosław,Sierosław,,52.40277,16.67953,17.2,10.74,Junikowo,13.5,Cmentarna,10.13,Palędzie,22.52,https://www.otodom.pl/pl/oferta/domy-sieroslaw-ID4jNBA
67283154,mieszkanie,"Dom 88,34 m2 + ogród + 2 miejsca post. + poddasze",88.34,4,0,559000,6328,,Swarzędz,Swarzędz,,52.4076,17.07351,9.5,4.81,Miłostowo,7.54,Mogileńska,2.12,Swarzędz,12.28,https://www.otodom.pl/pl/oferta/dom-88-34-m2-ogrod-2-miejsca-post-poddasze-ID4yjqa
67382787,dom,"Dom 88,34 m2 + ogród + 2 miejsca post. + poddasze",88.34,4,,559000,6328,ul. Bukowa,Rabowice,Rabowice,Os. Barwne - domy w zabudowie bliźniaczej i szeregowej,52.38786,17.11767,12.7,7.96,Franowo,10.83,Mogileńska,4.37,Swarzędz,15.57,https://www.otodom.pl/pl/oferta/dom-88-34-m2-ogrod-2-miejsca-post-poddasze-ID4yJl9
67968664,dom,"Dom 88,34 m2 + ogród + 2 miejsca post.",88.34,4,,559000,6328,,Swarzędz,Swarzędz,,52.41024,17.07804,9.8,5.11,Miłostowo,6.76,Mogileńska,2.81,Swarzędz,11.5,https://www.otodom.pl/pl/oferta/dom-88-34-m2-ogrod-2-miejsca-post-ID4BbKM
67973012,dom,"Nowoczesne domy parterowe! 4 pokoje, duże działki",89.8,4,,569000,6336,,Kalwy,Kalwy,,52.40215,16.59423,23.0,16.44,Junikowo,19.33,Cmentarna,10.81,Buk,28.34,https://www.otodom.pl/pl/oferta/nowoczesne-domy-parterowe-4-pokoje-duze-dzialki-ID4BcSU
68155062,dom,"dom 95m2 (parter,pietro,poddasze), blisko przystanek, Biedronka",95,4,,579000,6095,,Gowarzewo,Gowarzewo,,52.36452,17.12451,13.8,8.6,Franowo,12.65,Franowo,6.04,Swarzędz,17.24,https://www.otodom.pl/pl/oferta/dom-95m2-parter-pietro-poddasze-blisko-przystanek-biedronka-ID4BYfc
67789820,dom,"Dom, 105,59 m², Czerlejno",105.59,5,,580000,5493,,Czerlejno,Czerlejno,,52.35131,17.21442,20.1,14.88,Franowo,20.45,Miłostowo,14.47,Swarzędz,27.5,https://www.otodom.pl/pl/oferta/dom-105-59-m-czerlejno-ID4Arec
67039163,dom,Mosina-Krosno-Krosinko-Wiry różne lokalizacje,84.19,4,,585000,6949,,Mosina,Krosinko,,52.24316,16.85011,19.2,14.88,Dębiec PKM,15.77,Dębiec PKM,0.55,Mosina,20.72,https://www.otodom.pl/pl/oferta/mosina-krosno-krosinko-wiry-rozne-lokalizacje-ID4xhVP
67997200,dom,✅Strykowo / Gaz / 4 min Od Jeziora  ✅,102.1,4,,585000,5730,Pszenna,Strykowo,Strykowo,,52.25666,16.61549,27.4,20.52,Junikowo,28.14,Rondo Skubiszewskiego,8.56,Stęszew,34.03,https://www.otodom.pl/pl/oferta/strykowo-gaz-4-min-od-jeziora-ID4Bjb2
67246319,dom,Krosinko - ostatnie lokale!,84,4,,585000,6964,,Mosina,Krosinko,,52.24316,16.85011,19.2,14.88,Dębiec PKM,15.77,Dębiec PKM,0.55,Mosina,20.72,https://www.otodom.pl/pl/oferta/krosinko-ostatnie-lokale-ID4y9Q3
67956801,dom,Nowy etap! Bliźniaki z ogrodem,86.6,4,,587000,6778,Główna,Główna,Pobiedziska,,52.49441,17.29558,26.3,21.96,Miłostowo,26.5,Mogileńska,16.95,Kobylnica,29.65,https://www.otodom.pl/pl/oferta/nowy-etap-blizniaki-z-ogrodem-ID4B8Fr
68139723,mieszkanie,Mieszkanie jednopoziomowe na piętrze z balkonem i antresolą w 2025 r.,100.79,4,1,589000,5844,ul. Tęczowa,Dachowa,Dachowa,,52.29991,17.08645,15.9,10.78,Franowo,13.82,Szwedzka,4.61,Gądki,18.11,https://www.otodom.pl/pl/oferta/mieszkanie-jednopoziomowe-na-pietrze-z-balkonem-i-antresola-w-2025-r-ID4BUfN
67826469,dom,"Dom, 89 m², Rabowice",89,4,,589000,6618,,Rabowice,Rabowice,,52.38817,17.12503,13.2,8.46,Franowo,10.88,Mogileńska,4.42,Swarzędz,15.62,https://www.otodom.pl/pl/oferta/dom-89-m-rabowice-ID4AALj
67078754,dom,Dom nad stawem blisko Poznania,92.63,5,,589000,6359,Stawowa,Owińska,Owińska,,52.50891,16.97872,11.6,6.38,Błażeja,13.69,Jasna Rola,3.74,Bolechowo,14.93,https://www.otodom.pl/pl/oferta/dom-nad-stawem-blisko-poznania-ID4xsfo
65672765,dom,"Domy dwulokalowe 81,39 m², Śródka, pompa ciepła",81.39,4,,590000,7249,,Kleszczewo,Śródka,,52.33382,17.17116,18.1,12.72,Franowo,19.26,Szwedzka,10.81,Swarzędz,23.56,https://www.otodom.pl/pl/oferta/domy-dwulokalowe-81-39-m-srodka-pompa-ciepla-ID4ryu9
65673064,dom,"Domy dwulokalowe 81,39 m², Śródka, pompa ciepła",81.39,4,,590000,7249,,Śródka,Śródka,,52.29838,17.12645,17.9,12.58,Franowo,17.59,Szwedzka,6.83,Pierzchno,21.89,https://www.otodom.pl/pl/oferta/domy-dwulokalowe-81-39-m-srodka-pompa-ciepla-ID4ryyY
68125321,mieszkanie,Lokal Z DuŻym Ogrodem,86.66,3,0,595000,6866,"PARTEROWY, FUNKCJONALNY, WYKOŃCZENIE POD KLUCZ",Otusz,Buk,,52.35657,16.57496,25.0,17.89,Junikowo,33.02,Rondo Skubiszewskiego,5.14,Buk,38.91,https://www.otodom.pl/pl/oferta/lokal-z-duzym-ogrodem-ID4BQww
68153752,dom,Właśnie wybudowany bliźniak Wróblewo (Kostrzyn) 85 m²/100 m² całkowita,85,4,,595000,7000,Klonowa,Wróblewo,Kostrzyn,,52.37898,17.21259,19.2,14.37,Franowo,19.76,Miłostowo,13.78,Swarzędz,23.91,https://www.otodom.pl/pl/oferta/wlasnie-wybudowany-blizniak-wroblewo-kostrzyn-85-m-100-m-calkowita-ID4BXU4
67942966,dom,"Promocja Do 30.07. Parterowy,Funkcjonalny",86.66,3,,595000,6866,"PARTEROWY, FUNKCJONALNY, WYKOŃCZENIE POD KLUCZ",Otusz,Otusz,,52.35657,16.57496,25.0,17.89,Junikowo,33.02,Rondo Skubiszewskiego,5.14,Buk,38.91,https://www.otodom.pl/pl/oferta/promocja-do-30-07-parterowy-funkcjonalny-ID4B54i
68026743,dom,"Dom, 110 m², Konarskie",110,5,,597000,5427,,Czołowo,Konarskie,,52.23439,17.03762,20.6,16.45,Unii Lubelskiej,23.44,Szwajcarska,11.4,Gądki,27.02,https://www.otodom.pl/pl/oferta/dom-110-m-konarskie-ID4BqRx
68144756,dom,✅Szczytniki / 4 Lokale Środkowe/ IV kw 2026 ✅,88.5,4,,598000,6757,Choinkowa,Sypniewo,Szczytniki,,52.3059,17.00014,12.3,8.13,Unii Lubelskiej,10.68,Starołęka PKM,4.88,Gądki,22.93,https://www.otodom.pl/pl/oferta/szczytniki-4-lokale-srodkowe-iv-kw-2026-ID4BWyY
67437079,dom,Dom w zabudowie szeregowej pod Poznaniem – gotowy do wykończenia 0% pr,91.95,4,,598000,6504,,Czapury,Czapury,,52.32039,16.92345,9.8,5.38,Starołęka PKM,7.04,Starołęka PKM,7.71,Poznań Starołęka,13.27,https://www.otodom.pl/pl/oferta/dom-w-zabudowie-szeregowej-pod-poznaniem-gotowy-do-wykonczenia-0-pr-ID4yXsP
68144204,dom,Dom gotowy IV kwartał 2026/środkowy/gaz/światłowód,88.5,4,,598000,6757,Choinkowa,Szczytniki,Szczytniki,,52.2949,17.00743,13.6,9.45,Unii Lubelskiej,13.66,Starołęka PKM,4.2,Gądki,22.24,https://www.otodom.pl/pl/oferta/dom-gotowy-iv-kwartal-2026-srodkowy-gaz-swiatlowod-ID4BWq4
48105272,mieszkanie,Mieszkania Rabowice,88,4,1,599000,6807,ul. Olszynowa,Rabowice,Rabowice,,52.38651,17.11615,12.6,7.84,Franowo,10.76,Franowo,4.15,Swarzędz,15.35,https://www.otodom.pl/pl/oferta/mieszkania-rabowice-ID3fQnu
59422849,mieszkanie,Mieszkania Robakowo,88,4,1,599000,6807,Nowina,Robakowo,Robakowo,,52.30962,17.07944,14.8,9.61,Franowo,12.92,Szwedzka,3.86,Gądki,17.22,https://www.otodom.pl/pl/oferta/mieszkania-robakowo-ID41kB3
64505581,dom,"Osiedle Botanika - 2 Etap, dom 93,95 m2 + ogród 105 m2",93.95,4,,599000,6376,,Pobiedziska,Pobiedziska,,52.47435,17.27458,24.2,19.77,Miłostowo,24.52,Mogileńska,14.97,Kobylnica,27.67,https://www.otodom.pl/pl/oferta/osiedle-botanika-2-etap-dom-93-95-m2-ogrod-105-m2-ID4mEQB
68195756,dom,✅ Żabinko / Dom Przy Lesie / Działka 287 m2 ✅,125.23,5,,599000,4783,,Mosina,Mosina,,52.24831,16.8663,18.4,14.09,Dębiec PKM,16.94,Dębiec PKM,1.88,Mosina,21.88,https://www.otodom.pl/pl/oferta/zabinko-dom-przy-lesie-dzialka-287-m2-ID4C8Py
66741420,dom,"PROMOCJA! Domy 90 m² + 25 m² strychu, energooszczędna pompa ciepła",90.11,5,,599000,6647,ul. Na Skraju Lasu,Kamionki,Kamionki,,52.27892,16.99781,15.0,10.88,Unii Lubelskiej,12.94,Starołęka PKM,7.65,Gądki,23.88,https://www.otodom.pl/pl/oferta/promocja-domy-90-m-25-m-strychu-energooszczedna-pompa-ciepla-ID4v2uv
67056398,dom,"Bolechowo Osiedle Dom 89,43m2",89.43,4,,599000,6698,ul. Obornicka,Bolechowo-Osiedle,Bolechowo-Osiedle,,52.5427,16.97322,15.2,9.55,Os. Sobieskiego,13.04,Błażeja,0.73,Bolechowo,18.67,https://www.otodom.pl/pl/oferta/bolechowo-osiedle-dom-89-43m2-ID4xmqO
68002303,dom,"Bolechowo, Bolechowo Osiedle",90,4,,599000,6656,,Bolechowo-Osiedle,Bolechowo,,52.54181,16.9753,15.1,9.52,Os. Sobieskiego,13.1,Błażeja,0.57,Bolechowo,18.74,https://www.otodom.pl/pl/oferta/bolechowo-bolechowo-osiedle-ID4Bkwl
67905057,dom,Funkcjonalny dom w Pamiątkowie 90m2 / działka 500m2,90,4,,599000,6656,,Rokietnica,Pamiątkowo,,52.51359,16.74704,17.2,12.78,Os. Sobieskiego,16.29,Os. Sobieskiego,2.38,Rokietnica,24.7,https://www.otodom.pl/pl/oferta/funkcjonalny-dom-w-pamiatkowie-90m2-dzialka-500m2-ID4AWcR
56885088,dom,"Dom, 89 m², Potasze",89,5,,599000,6730,,Potasze,Potasze,,52.5241,17.02602,14.3,9.42,Błażeja,17.77,Błażeja,4.83,Bolechowo,19.33,https://www.otodom.pl/pl/oferta/dom-89-m-potasze-ID3QGpq
56883976,dom,"Dom, 89 m², Bolechówko",89,5,,599000,6730,,Bolechówko,Bolechówko,,52.52526,17.00194,13.8,8.68,Błażeja,17.14,Jasna Rola,5.41,Bolechowo,18.38,https://www.otodom.pl/pl/oferta/dom-89-m-bolechowko-ID3QG7u
56883828,dom,"Dom, 91 m², Murowana Goślina",91,5,,599000,6582,ul. Gnieźnieńska,Murowana Goślina,Murowana Goślina,,52.5712,17.02803,19.2,14.06,Błażeja,19.14,Błażeja,1.45,Murowana Goślina,24.04,https://www.otodom.pl/pl/oferta/dom-91-m-murowana-goslina-ID3QG56
48225334,dom,Mieszkanie Rokietnica,88,3,,599000,6807,Szkolna,Rokietnica,Rokietnica,,52.49724,16.73331,16.8,13.0,Os. Sobieskiego,18.01,Ogrody,4.44,Rokietnica,22.52,https://www.otodom.pl/pl/oferta/mieszkanie-rokietnica-ID3glBY
60506000,dom,Domy Rokietnica,88,4,,599000,6807,,Rokietnica,Rokietnica,,52.4976,16.73348,16.8,13.0,Os. Sobieskiego,17.96,Ogrody,4.39,Rokietnica,22.47,https://www.otodom.pl/pl/oferta/domy-rokietnica-ID45Sne
61335359,dom,Dom Swarzędz,88,4,,599000,6807,ul. tarninowa,Rabowice,Swarzędz,,52.38691,17.11409,12.5,7.71,Franowo,10.64,Franowo,4.03,Swarzędz,15.23,https://www.otodom.pl/pl/oferta/dom-swarzedz-ID49m7Z
66872589,dom,domy na sprzedaż 86 m² z ogródkiem • centrum Mosiny • wysoki standard,86.39,4,,599000,6934,ul. Cisowa,Mosina,Mosina,,52.23165,16.84114,20.6,16.28,Dębiec PKM,17.31,Dębiec PKM,1.47,Mosina,22.26,https://www.otodom.pl/pl/oferta/domy-na-sprzedaz-86-m-z-ogrodkiem-centrum-mosiny-wysoki-standard-ID4vAC9
67223972,dom,Nowoczesny Dom pod Lasem,96,4,,599000,6240,,Mrowino,Rokietnica,,52.51874,16.71347,19.3,15.08,Os. Sobieskiego,21.46,Os. Sobieskiego,5.36,Rokietnica,26.22,https://www.otodom.pl/pl/oferta/nowoczesny-dom-pod-lasem-ID4y41C
67352019,dom,Szeregowiec - 4 pokoje z ogródkiem,83.67,4,,599000,7159,,Rabowice,Rabowice,,52.39024,17.11982,12.8,8.13,Franowo,10.37,Mogileńska,3.91,Swarzędz,15.11,https://www.otodom.pl/pl/oferta/szeregowiec-4-pokoje-z-ogrodkiem-ID4yBkT
67179099,dom,"Ostatni wolny ! Duża działka, kameralne miejsce",83.77,4,,599000,7151,,Siekierki Wielkie,Siekierki Wielkie,,52.38424,17.18525,17.3,12.52,Franowo,16.19,Mogileńska,10.8,Swarzędz,20.93,https://www.otodom.pl/pl/oferta/ostatni-wolny-duza-dzialka-kameralne-miejsce-ID4xSlR
52976631,dom,Dom Robakowo,88,4,,599000,6807,,Robakowo,Robakowo,,52.30962,17.07944,14.8,9.61,Franowo,12.92,Szwedzka,3.86,Gądki,17.22,https://www.otodom.pl/pl/oferta/dom-robakowo-ID3AhDN
66378034,dom,Sprzedam dom w stanie surowym zamkniętym! Kostrzyn,126,4,,599000,4754,ul. Kórnicka,Kostrzyn,Kostrzyn,,52.38886,17.21723,19.4,14.7,Franowo,17.75,Mogileńska,12.35,Swarzędz,22.49,https://www.otodom.pl/pl/oferta/sprzedam-dom-w-stanie-surowym-zamknietym-kostrzyn-ID4uwXs
65367667,dom,Dom 92m2 działka 350m2 OSTATNI Siekierki Wielkie,92,4,,599000,6511,,Siekierki Wielkie,Siekierki Wielkie,,52.38665,17.16019,15.6,10.83,Franowo,13.39,Mogileńska,7.99,Swarzędz,18.13,https://www.otodom.pl/pl/oferta/dom-92m2-dzialka-350m2-ostatni-siekierki-wielkie-ID4qh7d
64375469,dom,Blizniak z dużą działką blisko S5,109,5,,599900,5504,Główna ,Wronczyn,Wronczyn gm. Stęszew,,52.22101,16.65345,28.2,21.88,Junikowo,31.36,Rondo Skubiszewskiego,9.42,Granowo,37.26,https://www.otodom.pl/pl/oferta/blizniak-z-duza-dzialka-blisko-s5-ID4m701
68137504,dom,"Lokal 10D | 82,30 m² | 5 pokoi | ogród | 2 miejsca postojowe | bez PCC",82.3,5,,599999,7290,,Buk,Buk,Folwarczna - domy w cenie mieszkania! 499 tysięcy w gminie Buk!,52.35477,16.51973,28.7,21.62,Junikowo,31.58,Rondo Skubiszewskiego,1.68,Buk,37.48,https://www.otodom.pl/pl/oferta/lokal-10d-82-30-m-5-pokoi-ogrod-2-miejsca-postojowe-bez-pcc-ID4BTG0
68137463,dom,"Lokal 10C | 81,80 m² | 5 pokoi | ogród | 2 miejsca postojowe | bez PCC",81.8,5,,599999,7335,,Buk,Buk,Folwarczna - domy w cenie mieszkania! 499 tysięcy w gminie Buk!,52.35477,16.51973,28.7,21.62,Junikowo,31.58,Rondo Skubiszewskiego,1.68,Buk,37.48,https://www.otodom.pl/pl/oferta/lokal-10c-81-80-m-5-pokoi-ogrod-2-miejsca-postojowe-bez-pcc-ID4BTFl
68174861,dom,"Doskonała lokalizacja, nowe osiedle,  blisko Galerii MINI.",95.58,4,,600000,6277,ul. Jodłowa,Kamionki,Kamionki,,52.29455,16.97543,13.0,8.74,Starołęka PKM,11.04,Starołęka PKM,9.04,Gądki,17.27,https://www.otodom.pl/pl/oferta/doskonala-lokalizacja-nowe-osiedle-blisko-galerii-mini-ID4C3ox
67599144,mieszkanie,Zamieszkaj w Pobiedziskach! 4 pok 94m2 |OGRÓDEK | 2 MP | 30 min Poznań,94,4,0,601000,6394,,Pobiedziska,Pobiedziska,,52.47494,17.27619,24.4,19.9,Miłostowo,24.46,Mogileńska,14.91,Kobylnica,27.61,https://www.otodom.pl/pl/oferta/zamieszkaj-w-pobiedziskach-4-pok-94m2-ogrodek-2-mp-30-min-poznan-ID4zDCM
67641051,dom,!HIT! M4 94m2 w zab. szereg. z OGRODEM| Zamieszkaj 30min od Poznania!,94,4,,606000,6447,,Pobiedziska,Pobiedziska,,52.47489,17.27632,24.4,19.9,Miłostowo,24.45,Mogileńska,14.9,Kobylnica,27.61,https://www.otodom.pl/pl/oferta/hit-m4-94m2-w-zab-szereg-z-ogrodem-zamieszkaj-30min-od-poznania-ID4zOvH
67893163,dom,4-pokojowy dom 89m2 Bezpośrednio,89.12,4,,609000,6833,św. Jana,Gwiazdowo,Gwiazdowo,Forall Gwiazdowo,52.41763,17.21036,18.8,14.11,Miłostowo,18.73,Mogileńska,13.34,Swarzędz,23.47,https://www.otodom.pl/pl/oferta/4-pokojowy-dom-89m2-bezposrednio-ID4AS71
66335920,dom,4-pokojowy dom 80m2 + ogródek Bezpośrednio,80.15,4,,609000,7598,Radiowa,Koninko,Koninko,Koninko (domy),52.30313,17.02308,13.2,8.85,Franowo,16.16,Szwedzka,2.41,Gądki,20.45,https://www.otodom.pl/pl/oferta/4-pokojowy-dom-80m2-ogrodek-bezposrednio-ID4ul0c
67893165,dom,4-pokojowy dom 89m2 Bez Pośredników,89.12,4,,609000,6833,św. Jana,Gwiazdowo,Gwiazdowo,Forall Gwiazdowo,52.41763,17.21036,18.8,14.11,Miłostowo,18.73,Mogileńska,13.34,Swarzędz,23.47,https://www.otodom.pl/pl/oferta/4-pokojowy-dom-89m2-bez-posrednikow-ID4AS73
67859055,dom,Domy z ogródkami w spokojnej okolicy | 89 m² | Gwiazdowo,89.12,4,,609000,6833,ul. św. Jana,Gwiazdowo,Gwiazdowo,,52.41773,17.21119,18.9,14.17,Miłostowo,18.73,Mogileńska,13.33,Swarzędz,23.46,https://www.otodom.pl/pl/oferta/domy-z-ogrodkami-w-spokojnej-okolicy-89-m-gwiazdowo-ID4AJeT
67483154,dom,Przytulny dom z 4 pokojami w spokojnej okolicy,80,4,,609000,7612,,Tarnowo Podgórne,Tarnowo Podgórne,,52.44947,16.67143,18.4,13.27,Junikowo,17.8,Cmentarna,15.52,Kiekrz,21.77,https://www.otodom.pl/pl/oferta/przytulny-dom-z-4-pokojami-w-spokojnej-okolicy-ID4z9rY
66241438,dom,Osiedle Góra Nowoczesny Dom 80 m2 + poddasze,80,4,,609000,7612,,Góra,Góra,,52.48043,16.63298,21.9,17.4,Junikowo,21.25,Cmentarna,18.97,Kiekrz,25.22,https://www.otodom.pl/pl/oferta/osiedle-gora-nowoczesny-dom-80-m2-poddasze-ID4tVqi
63903062,dom,Osiedle Góra Nowoczesny Dom 80 m2 + poddasze,80,4,,609000,7612,,Góra,Góra,,52.4814,16.63502,21.8,17.36,Junikowo,21.22,Cmentarna,18.93,Kiekrz,25.19,https://www.otodom.pl/pl/oferta/osiedle-gora-nowoczesny-dom-80-m2-poddasze-ID4k86y
65662391,dom,Z możliwością wykończenia pod klucz,95,5,,610000,6421,Kolejowa,Przybroda,Przybroda,,52.51811,16.66318,22.0,18.23,Os. Sobieskiego,23.22,Ogrody,8.97,Rokietnica,27.73,https://www.otodom.pl/pl/oferta/z-mozliwoscia-wykonczenia-pod-klucz-ID4rwMP
67955931,dom,"OSTATNI DOSTĘPNY LOKAL – BEZCZYNSZOWE, 5 POKOI + PODDASZE 30 m²",88,5,,614900,6988,ul. Tulecka,Gowarzewo,Gowarzewo,,52.3553,17.11759,13.8,8.44,Franowo,15.84,Szwedzka,7.99,Swarzędz,20.14,https://www.otodom.pl/pl/oferta/ostatni-dostepny-lokal-bezczynszowe-5-pokoi-poddasze-30-m-ID4B8rp
68195763,dom,✅ Gotowe / Pompa Ciepła/Dachowa ✅,88.76,4,,615000,6929,,Robakowo,Dachowa,,52.3022,17.0894,15.8,10.68,Franowo,13.87,Szwedzka,4.66,Gądki,18.17,https://www.otodom.pl/pl/oferta/gotowe-pompa-ciepla-dachowa-ID4C8PF
66732188,dom,DOM JEDNORODZINNY DWULOKALOWY DACHOWA TURKUSOWA-OKAZJA,93,4,,615000,6613,Turkusowa,Dachowa,Dachowa,,52.29766,17.08489,16.0,10.94,Franowo,14.12,Szwedzka,4.91,Gądki,18.42,https://www.otodom.pl/pl/oferta/dom-jednorodzinny-dwulokalowy-dachowa-turkusowa-okazja-ID4v05C
66741444,dom,Nowy elegancki dom na sprzedaż + 50m2 poddasze,122.81,4,,615000,5008,ul. Turkusowa,Dachowa,Dachowa,,52.29971,17.08734,16.0,10.83,Franowo,13.84,Szwedzka,4.63,Gądki,18.14,https://www.otodom.pl/pl/oferta/nowy-elegancki-dom-na-sprzedaz-50m2-poddasze-ID4v2uU
67730459,dom,"Dom 80,40m2 z własnym ogrodem i miejscami postojowymi",80.4,4,,618000,7687,,Kruszewnia,Kruszewnia,,52.37571,17.10255,12.0,6.93,Franowo,10.85,Franowo,4.25,Swarzędz,15.45,https://www.otodom.pl/pl/oferta/dom-80-40m2-z-wlasnym-ogrodem-i-miejscami-postojowymi-ID4AbML
66615198,dom,CERADZ DOLNY|ŚWIATŁOWÓD|POMPA CIEPŁA SAMSUNG AI |Nowoczesny dom NATURA,100,4,,619000,6190,,Tarnowo Podgórne,Ceradz Dolny,,52.42739,16.58084,24.0,17.89,Junikowo,24.48,Cmentarna,15.31,Buk,28.45,https://www.otodom.pl/pl/oferta/ceradz-dolny-swiatlowod-pompa-ciepla-samsung-ai-nowoczesny-dom-natura-ID4wwEG
66615357,dom,ŚWIATŁOWÓD | POMPA CIEPŁA SAMSUNG AI | Nowoczesny dom wśród natury,100,4,,619000,6190,,Ceradz Dolny,Ceradz Dolny,,52.42739,16.58084,24.0,17.89,Junikowo,24.48,Cmentarna,15.31,Buk,28.45,https://www.otodom.pl/pl/oferta/swiatlowod-pompa-ciepla-samsung-ai-nowoczesny-dom-wsrod-natury-ID4wwHf
67364560,dom,DOMY W ZABUDOWIE BLIŹNIACZEJ - Pobiedziska ul. Północna - 4/6 DOSTĘPNE,86.33,4,,619000,7170,ul. Główna,Pobiedziska,Pobiedziska,,52.49109,17.29391,26.1,21.7,Miłostowo,26.02,Mogileńska,16.47,Kobylnica,29.17,https://www.otodom.pl/pl/oferta/domy-w-zabudowie-blizniaczej-pobiedziska-ul-polnocna-4-6-dostepne-ID4yEBa
64874220,dom,Przytulny dom z 4 pokojami w spokojnej okolicy,80,4,,619000,7738,,Tarnowo Podgórne,Tarnowo Podgórne,,52.44947,16.67143,18.4,13.27,Junikowo,17.8,Cmentarna,15.52,Kiekrz,21.77,https://www.otodom.pl/pl/oferta/przytulny-dom-z-4-pokojami-w-spokojnej-okolicy-ID4ocKo
68116767,dom,Oferta promocyjna - gotowy dom w nowej cenie |pompa ciepła |światłowód,98.77,4,,620000,6277,,Rokietnica,Rokietnica,Osiedle Pamiątkowo – Nowoczesne Domy w Pamiątkowie,52.51359,16.74704,17.2,12.78,Os. Sobieskiego,16.29,Os. Sobieskiego,2.38,Rokietnica,24.7,https://www.otodom.pl/pl/oferta/oferta-promocyjna-gotowy-dom-w-nowej-cenie-pompa-ciepla-swiatlowod-ID4BOhx
68179709,dom,Dom Z Ogrodem W Daszewicach (Gmina Mosina),117,4,,620000,5299,Rogalińska,Daszewice,Mosina,,52.28846,16.96216,13.5,9.13,Starołęka PKM,10.41,Starołęka PKM,10.04,Gądki,16.63,https://www.otodom.pl/pl/oferta/dom-z-ogrodem-w-daszewicach-gmina-mosina-ID4C4EJ
68154472,dom,Oferta promocyjna - gotowy dom w nowej cenie |pompa ciepła |światłowód,98.77,4,,620000,6277,,Tarnowo Podgórne,Tarnowo Podgórne,,52.44947,16.67143,18.4,13.27,Junikowo,17.8,Cmentarna,15.52,Kiekrz,21.77,https://www.otodom.pl/pl/oferta/oferta-promocyjna-gotowy-dom-w-nowej-cenie-pompa-ciepla-swiatlowod-ID4BY5G
61146014,dom,"Dom, 91 m², Murowana Goślina",91,5,,620000,6813,ul. Gnieźnieńska,Murowana Goślina,Murowana Goślina,,52.5713,17.02807,19.2,14.07,Błażeja,19.14,Błażeja,1.45,Murowana Goślina,24.04,https://www.otodom.pl/pl/oferta/dom-91-m-murowana-goslina-ID48yS2
67641005,dom,M4 84m2 w zab. szereg. z OGRODEM i MP | Zamieszkaj 25 min od Poznania!,83.67,4,,623700,7454,,Rabowice,Rabowice,,52.38961,17.1275,13.3,8.64,Franowo,10.99,Mogileńska,4.53,Swarzędz,15.73,https://www.otodom.pl/pl/oferta/m4-84m2-w-zab-szereg-z-ogrodem-i-mp-zamieszkaj-25-min-od-poznania-ID4zOwX
67355049,dom,Dom 115 m2 Działka 500 m2 Trzek,115,4,,625000,5435,Lipowa,Trzek,Trzek,,52.35751,17.17197,17.1,11.92,Franowo,17.39,Miłostowo,11.4,Swarzędz,24.65,https://www.otodom.pl/pl/oferta/dom-115-m2-dzialka-500-m2-trzek-ID4yC7L
67135922,dom,5-pokojowy dom 96m2 + ogródek Bez Prowizji,96.13,5,,629000,6543,ul. Jesionowa,Biedrusko,Biedrusko,Biedrusko Osiedle Jesionowe,52.54238,16.94762,14.9,8.97,Os. Sobieskiego,10.93,Błażeja,2.65,Bolechowo,17.38,https://www.otodom.pl/pl/oferta/5-pokojowy-dom-96m2-ogrodek-bez-prowizji-ID4xH7s
68195754,dom,✅Dom Parterowy/możliwość zmian projektu✅,118.7,4,,629000,5299,,Gowarzewo,Siekierki Wielkie,,52.37998,17.16298,15.9,11.0,Franowo,14.79,Miłostowo,8.81,Swarzędz,18.94,https://www.otodom.pl/pl/oferta/dom-parterowy-mozliwosc-zmian-projektu-ID4C8Pv
67135917,dom,5-pokojowy dom 96m2 + ogródek Bez Pośredników,96.13,5,,629000,6543,ul. Jesionowa,Biedrusko,Biedrusko,Biedrusko Osiedle Jesionowe,52.54238,16.94762,14.9,8.97,Os. Sobieskiego,10.93,Błażeja,2.65,Bolechowo,17.38,https://www.otodom.pl/pl/oferta/5-pokojowy-dom-96m2-ogrodek-bez-posrednikow-ID4xH7n
68188877,dom,Dwupoziomowy dom z ogrodem w Biedrusku,96.13,5,,629000,6543,,Biedrusko,Biedrusko,,52.54306,16.94337,15.0,8.98,Os. Sobieskiego,10.92,Błażeja,2.83,Bolechowo,17.36,https://www.otodom.pl/pl/oferta/dwupoziomowy-dom-z-ogrodem-w-biedrusku-ID4C72B
96819575400067,dom,✅Dom Parterowy/możliwość zmian projektu✅,118.7,4,,629000,5299,,Gowarzewo,Siekierki Wielkie,,52.37998,17.16298,15.9,11.0,Franowo,14.79,Miłostowo,8.81,Swarzędz,18.94,https://www.otodom.pl/pl/oferta/dom-parterowy-mozliwosc-zmian-projektu-ID4C8Pv
68187443,dom,✅Dom Parterowy/możliwość zmian projektu✅,118.7,4,,629000,5299,,Siekierki Wielkie,Siekierki Wielkie,,52.37998,17.16298,15.9,11.0,Franowo,14.79,Miłostowo,8.81,Swarzędz,18.94,https://www.otodom.pl/pl/oferta/dom-parterowy-mozliwosc-zmian-projektu-ID4C6Ft
96818744300067,dom,✅Dom Parterowy/możliwość zmian projektu✅,118.7,4,,629000,5299,,Siekierki Wielkie,Siekierki Wielkie,,52.37998,17.16298,15.9,11.0,Franowo,14.79,Miłostowo,8.81,Swarzędz,18.94,https://www.otodom.pl/pl/oferta/dom-parterowy-mozliwosc-zmian-projektu-ID4C6Ft
67135916,dom,5-pokojowy dom 96m2 + ogródek Bez Pośredników,96.13,5,,629000,6543,ul. Jesionowa,Biedrusko,Biedrusko,Biedrusko Osiedle Jesionowe,52.54238,16.94762,14.9,8.97,Os. Sobieskiego,10.93,Błażeja,2.65,Bolechowo,17.38,https://www.otodom.pl/pl/oferta/5-pokojowy-dom-96m2-ogrodek-bez-posrednikow-ID4xH7m
67243356,dom,"Bliźniak 120 m², 5 pokoi, Śródka, blisko Poznania",120,5,,629000,5242,,Śródka,Śródka,,52.29691,17.13759,18.6,13.22,Franowo,18.37,Szwedzka,7.61,Pierzchno,22.67,https://www.otodom.pl/pl/oferta/blizniak-120-m-5-pokoi-srodka-blisko-poznania-ID4y94g
67908557,dom,"NOWOCZESNY Dom w zabudowie bliźniaczej 103 m2, Trzek (k. Kostrzyna)",103,4,,629000,6107,ul. Lipowa,Trzek,Kostrzyn,,52.35799,17.17172,17.1,11.89,Franowo,17.33,Miłostowo,11.35,Swarzędz,24.71,https://www.otodom.pl/pl/oferta/nowoczesny-dom-w-zabudowie-blizniaczej-103-m2-trzek-k-kostrzyna-ID4AV7j
67817764,dom,NOWY dom wolnostojący 101m2 629000 zł !!!,101,3,,629000,6228,,Kostrzyn,Kostrzyn,,52.40098,17.22671,19.9,15.23,Miłostowo,17.47,Mogileńska,12.07,Swarzędz,22.21,https://www.otodom.pl/pl/oferta/nowy-dom-wolnostojacy-101m2-629000-zl-ID4AyuU
68196073,dom,✅ Domy Pod Bukiem/Szewce - Michalin ✅,97.75,4,,630000,6445,,Buk,Buk,,52.37749,16.65112,19.5,12.48,Junikowo,18.81,Cmentarna,9.68,Palędzie,27.83,https://www.otodom.pl/pl/oferta/domy-pod-bukiem-szewce-michalin-ID4C8UF
68026872,dom,"Kleszczewo, Gowarzewo dom 86m2",86,4,,630000,7326,,Kleszczewo,Gowarzewo,,52.33382,17.17116,18.1,12.72,Franowo,19.26,Szwedzka,10.81,Swarzędz,23.56,https://www.otodom.pl/pl/oferta/kleszczewo-gowarzewo-dom-86m2-ID4BqTC
67771485,dom,"Siekierki Wielkie 90m2, INTERNET !",90,4,,630000,7000,Cicha,Siekierki Wielkie,Siekierki Wielkie,,52.3807,17.16348,15.9,11.04,Franowo,14.68,Miłostowo,8.7,Swarzędz,18.83,https://www.otodom.pl/pl/oferta/siekierki-wielkie-90m2-internet-ID4Amst
66189683,dom,Domy blisko jeziora ETAP II,100.04,5,,630000,6297,ul. Pszenna,Strykowo,Strykowo,,52.25879,16.61572,27.3,20.35,Junikowo,28.39,Rondo Skubiszewskiego,8.8,Stęszew,34.28,https://www.otodom.pl/pl/oferta/domy-blisko-jeziora-etap-ii-ID4tIXx
67640213,dom,Strykowo | 100 m2 + ogród 330–380 m | WIDOK na JEZIORO,100.04,4,,630000,6297,ul. Pogodna,Strykowo,Strykowo,,52.25666,16.61549,27.4,20.52,Junikowo,28.14,Rondo Skubiszewskiego,8.56,Stęszew,34.03,https://www.otodom.pl/pl/oferta/strykowo-100-m2-ogrod-330380-m-widok-na-jezioro-ID4zOjb
68141848,dom,"Okazja! Super cena! Dom 2-kondygnacyjny, Fotowoltaika,magazyn energii.",89.64,5,,635000,7084,Ignacego Krasickiego,Dopiewiec,Dopiewiec,Bajkowy Dopiewiec III. Pełna własność! Fotowoltaika z mag. energii!,52.35519,16.71289,16.1,8.85,Junikowo,11.76,Cmentarna,4.79,Palędzie,24.0,https://www.otodom.pl/pl/oferta/okazja-super-cena-dom-2-kondygnacyjny-fotowoltaika-magazyn-energii-ID4BUO4
67048471,dom,"Lokale mieszkalne 94 m² i 98 m² Dachowa, gm. Kórnik",94,,,635000,6755,,Dachowa,Kórnik,,52.30419,17.10051,16.2,10.94,Franowo,15.21,Szwedzka,6.0,Gądki,19.51,https://www.otodom.pl/pl/oferta/lokale-mieszkalne-94-m-i-98-m-dachowa-gm-kornik-ID4xkmX
68061345,dom,"99m2, nowoczesna bryła, jezioro, Puszcza, piękny ogród, za płotem staw",99,4,,636600,6430,ul. Kozakowa,Łopuchowo,Łopuchowo,,52.61476,17.09083,25.3,20.29,Błażeja,26.38,Błażeja,9.21,Murowana Goślina,31.91,https://www.otodom.pl/pl/oferta/99m2-nowoczesna-bryla-jezioro-puszcza-piekny-ogrod-za-plotem-staw-ID4BzRD
68174378,dom,Funkcjonalny i duży dom nad jeziorem Niepruszewskim w Kalwach,150,6,,637000,4247,,Kalwy,Niepruszewo,,52.40116,16.59907,22.7,16.1,Junikowo,19.2,Cmentarna,10.68,Buk,28.22,https://www.otodom.pl/pl/oferta/funkcjonalny-i-duzy-dom-nad-jeziorem-niepruszewskim-w-kalwach-ID4C3gK
68203851,dom,przestronne pokoje z opcją wykończenia pod klucz,93,5,,639000,6871,,Robakowo,Robakowo,,52.30962,17.07944,14.8,9.61,Franowo,12.92,Szwedzka,3.86,Gądki,17.22,https://www.otodom.pl/pl/oferta/przestronne-pokoje-z-opcja-wykonczenia-pod-klucz-ID4CaV7
67809480,dom,Ostatni wolny dom na osiedlu - 102m2 gotowy do zamieszkania.,102.88,5,,639000,6211,Liliowa,Czerlejno,Czerlejno,,52.35131,17.21442,20.1,14.88,Franowo,20.45,Miłostowo,14.47,Swarzędz,27.5,https://www.otodom.pl/pl/oferta/ostatni-wolny-dom-na-osiedlu-102m2-gotowy-do-zamieszkania-ID4Avli
68196292,dom,✅ Dopiewo / Dom 82 m2 / 250 m2 / 11.2026 ✅,82,4,,639000,7793,Więckowska,Dopiewiec,Dopiewo,,52.36165,16.66976,18.6,11.46,Junikowo,14.71,Cmentarna,7.74,Palędzie,26.26,https://www.otodom.pl/pl/oferta/dopiewo-dom-82-m2-250-m2-11-2026-ID4C8Yc
68174218,dom,OSTATNIA POŁÓWKA z dużym ogrodem ul. Berberysowa DACHOWA,93,5,,639000,6871,,Dachowa,Dachowa,,52.30419,17.10051,16.2,10.94,Franowo,15.21,Szwedzka,6.0,Gądki,19.51,https://www.otodom.pl/pl/oferta/ostatnia-polowka-z-duzym-ogrodem-ul-berberysowa-dachowa-ID4C3ea
68127813,dom,4 pok./ gaz/brak skosów/dz.250 m2 dla lok.,82,4,,639000,7793,Więckowska,Dopiewo,Dopiewo,,52.3672,16.66729,18.6,11.51,Junikowo,15.06,Cmentarna,8.09,Palędzie,27.01,https://www.otodom.pl/pl/oferta/4-pok-gaz-brak-skosow-dz-250-m2-dla-lok-ID4BR9H
68091494,dom,OSTATNIA POŁÓWKA w spokojnej okolicy Dachowej z dużym ogrodem,92.5,5,,639000,6908,,Dachowa,Dachowa,,52.30419,17.10051,16.2,10.94,Franowo,15.21,Szwedzka,6.0,Gądki,19.51,https://www.otodom.pl/pl/oferta/ostatnia-polowka-w-spokojnej-okolicy-dachowej-z-duzym-ogrodem-ID4BHHU
67962716,dom,PIĘKNY BLIŹNIAK 5 POKOI Dachowa z wykończeniem pod klucz,90,5,,639000,7100,,Dachowa,Dachowa,,52.30419,17.10051,16.2,10.94,Franowo,15.21,Szwedzka,6.0,Gądki,19.51,https://www.otodom.pl/pl/oferta/piekny-blizniak-5-pokoi-dachowa-z-wykonczeniem-pod-klucz-ID4BacQ
65663662,dom,"CENA PROMOCYJNA! Dom z ogrodem blisko Poznania! 5 pokoi! 97,44 mkw!",97.44,5,,640000,6568,,Czapury,Czapury,,52.3204,16.92448,9.8,5.37,Starołęka PKM,7.07,Starołęka PKM,7.74,Poznań Starołęka,13.3,https://www.otodom.pl/pl/oferta/cena-promocyjna-dom-z-ogrodem-blisko-poznania-5-pokoi-97-44-mkw-ID4rv7k
66484313,mieszkanie,Lokal w bliźniaku parterowym - Os. Morskie,80,4,0,649000,8112,ul. Bosmańska,Lusówko,Lusówko,,52.43631,16.64045,20.1,14.42,Junikowo,20.1,Cmentarna,15.32,Palędzie,24.07,https://www.otodom.pl/pl/oferta/lokal-w-blizniaku-parterowym-os-morskie-ID4uXBD
68196070,dom,✅Nagranie Osiedla Z Lotu Ptaka/85 m2/ ✅,85.58,4,,649000,7584,,Mosina,Mosina,,52.24831,16.8663,18.4,14.09,Dębiec PKM,16.94,Dębiec PKM,1.88,Mosina,21.88,https://www.otodom.pl/pl/oferta/nagranie-osiedla-z-lotu-ptaka-85-m2-ID4C8UC
68074913,dom,Gotowy dom w Pamiątkowie! Odbiór kluczy w czerwcu,99.29,5,,649000,6536,,Rokietnica,Pamiątkowo,Osiedle Pamiątkowo – Nowoczesne Domy w Pamiątkowie,52.51359,16.74704,17.2,12.78,Os. Sobieskiego,16.29,Os. Sobieskiego,2.38,Rokietnica,24.7,https://www.otodom.pl/pl/oferta/gotowy-dom-w-pamiatkowie-odbior-kluczy-w-czerwcu-ID4BDot
68130638,dom,NOWY PARTEROWY DOM | LOKAL NR 2 - DZIAŁKA 494 m²,88.04,4,,649000,7372,Agatowa,Sierosław,Sierosław,,52.4136,16.68605,16.8,10.62,Junikowo,14.67,Cmentarna,11.3,Palędzie,23.69,https://www.otodom.pl/pl/oferta/nowy-parterowy-dom-lokal-nr-2-dzialka-494-m-ID4BRTg
67893164,dom,4-pokojowy dom 89m2 Bezpośrednio,89.12,4,,649000,7282,św. Jana,Gwiazdowo,Gwiazdowo,Forall Gwiazdowo,52.41763,17.21036,18.8,14.11,Miłostowo,18.73,Mogileńska,13.34,Swarzędz,23.47,https://www.otodom.pl/pl/oferta/4-pokojowy-dom-89m2-bezposrednio-ID4AS72
68000041,dom,Ostatni lokal - Południowa strona,96,4,,649000,6760,,Mrowino,Rokietnica,,52.51897,16.71284,19.4,15.13,Os. Sobieskiego,21.43,Os. Sobieskiego,5.33,Rokietnica,26.19,https://www.otodom.pl/pl/oferta/ostatni-lokal-poludniowa-strona-ID4BjUR
66614540,dom,Domy Osiedle Makowe ul. Gnieźnieńska,107.17,4,,650000,6065,,Murowana Goślina,Murowana Goślina,,52.57181,17.02344,19.2,13.99,Os. Sobieskiego,18.82,Błażeja,1.13,Murowana Goślina,23.73,https://www.otodom.pl/pl/oferta/domy-osiedle-makowe-ul-gnieznienska-ID4wwu4
67248592,dom,"4 pokojowy dom w spokojnej okolicy z świetnym dojazdem, ostatni dom",94,4,,650000,6915,,Trzcielin,Konarzewo,,52.32482,16.68981,19.0,11.81,Junikowo,18.15,Rondo Skubiszewskiego,6.67,Stęszew,24.05,https://www.otodom.pl/pl/oferta/4-pokojowy-dom-w-spokojnej-okolicy-z-swietnym-dojazdem-ostatni-dom-ID4yaqI
65002682,dom,"Dom, 101,60 m², Potasze",101.6,5,,650000,6398,,Potasze,Potasze,,52.5241,17.02602,14.3,9.42,Błażeja,17.77,Błażeja,4.83,Bolechowo,19.33,https://www.otodom.pl/pl/oferta/dom-101-60-m-potasze-ID4oKam
64966722,dom,"Dom, 101,60 m², Bolechówko",101.6,5,,650000,6398,,Bolechówko,Bolechówko,,52.52522,17.00254,13.8,8.7,Błażeja,17.18,Jasna Rola,5.45,Bolechowo,18.42,https://www.otodom.pl/pl/oferta/dom-101-60-m-bolechowko-ID4oAOm
67297337,dom,Dom w zabudowie dwulokalowej 117m2 ! Działka ze ścianą LASU,117.28,4,,650000,5542,,Kórnik,Kórnik,,52.24811,17.08378,20.5,15.87,Franowo,18.58,Szwedzka,7.26,Gądki,22.88,https://www.otodom.pl/pl/oferta/dom-w-zabudowie-dwulokalowej-117m2-dzialka-ze-sciana-lasu-ID4yn6W
66028600,dom,Na sprzedaż dom w stanie deweloperskim Cena do negocjacji Strykowo,193,4,,650000,3368,zbożowa,Strykowo,Strykowo,,52.25453,16.61527,27.6,20.7,Junikowo,27.92,Rondo Skubiszewskiego,8.34,Stęszew,33.82,https://www.otodom.pl/pl/oferta/na-sprzedaz-dom-w-stanie-deweloperskim-cena-do-negocjacji-strykowo-ID4t33q
66477734,dom,Bliźniak| Ceradz Kościelny| w otoczeniu zieleni,93.5,4,,650000,6952,,Ceradz Kościelny,Ceradz Kościelny,,52.43413,16.59335,23.3,17.31,Junikowo,23.53,Cmentarna,14.27,Buk,27.5,https://www.otodom.pl/pl/oferta/blizniak-ceradz-koscielny-w-otoczeniu-zieleni-ID4uWTv
68195757,dom,✅Gotowe / Pompa Ciepła/Dachowa✅,92.07,4,,655000,7114,,Robakowo,Dachowa,,52.3022,17.0894,15.8,10.68,Franowo,13.87,Szwedzka,4.66,Gądki,18.17,https://www.otodom.pl/pl/oferta/gotowe-pompa-ciepla-dachowa-ID4C8Pz
68013389,dom,"Dom Dwulokalowy z Fotowoltaiką Blisko Jeziora,cena do negocjacji",83.74,4,,655000,7822,ul. Dereniowa,Więckowice,Więckowice,,52.39669,16.62517,21.0,14.29,Junikowo,17.8,Cmentarna,12.17,Buk,26.82,https://www.otodom.pl/pl/oferta/dom-dwulokalowy-z-fotowoltaika-blisko-jeziora-cena-do-negocjacji-ID4Bno9
66744570,dom,Nowy elegancki dom na sprzedaż,134.5,4,,655000,4870,ul. Turkusowa,Dachowa,Dachowa,,52.29971,17.08734,16.0,10.83,Franowo,13.84,Szwedzka,4.63,Gądki,18.14,https://www.otodom.pl/pl/oferta/nowy-elegancki-dom-na-sprzedaz-ID4v3jk
68144755,dom,✅Szczytniki/ 4 Lokale Skrajne/ IV kw 2026✅,89.7,4,,658000,7336,Choinkowa,Szczytniki,Szczytniki,,52.3059,17.00014,12.3,8.13,Unii Lubelskiej,10.68,Starołęka PKM,4.88,Gądki,22.93,https://www.otodom.pl/pl/oferta/szczytniki-4-lokale-skrajne-iv-kw-2026-ID4BWyX
68144203,dom,Dom gotowy IV kwartał 2026/ skrajny/gaz/światłowód,89.7,4,,658000,7336,Choinkowa,Szczytniki,Szczytniki,,52.29489,17.00743,13.6,9.45,Unii Lubelskiej,13.66,Starołęka PKM,4.2,Gądki,22.24,https://www.otodom.pl/pl/oferta/dom-gotowy-iv-kwartal-2026-skrajny-gaz-swiatlowod-ID4BWq3
64365612,dom,Dom 87m2 + poddasze 15m2 + działka 250m2,87.43,4,,659000,7537,,Swarzędz,Swarzędz,,52.4076,17.07351,9.5,4.81,Miłostowo,7.54,Mogileńska,2.12,Swarzędz,12.28,https://www.otodom.pl/pl/oferta/dom-87m2-poddasze-15m2-dzialka-250m2-ID4m4r2
68143820,dom,Ostatni prawa strona/gotowy /kanalizacja/,82.19,4,,659000,8018,,Kamionki,Kamionki,,52.28554,16.99442,14.3,10.11,Unii Lubelskiej,12.08,Starołęka PKM,6.79,Gądki,23.02,https://www.otodom.pl/pl/oferta/ostatni-prawa-strona-gotowy-kanalizacja-ID4BWjS
68058562,dom,"Funkcjonaly, wolnostojący dom pod lasem|4 pokoje",86,4,,659000,7663,,Kórnik,Kórnik,,52.25137,17.07869,20.0,15.41,Franowo,17.88,Szwedzka,6.56,Gądki,22.18,https://www.otodom.pl/pl/oferta/funkcjonaly-wolnostojacy-dom-pod-lasem-4-pokoje-ID4Bz8K
67875979,dom,Nowy dom 87 m² z ogródkiem | Gowarzewo,87.62,4,,659000,7521,,Gowarzewo,Gowarzewo,,52.35346,17.10911,13.4,7.98,Franowo,15.63,Szwedzka,8.94,Swarzędz,19.93,https://www.otodom.pl/pl/oferta/nowy-dom-87-m-z-ogrodkiem-gowarzewo-ID4ANDR
66656909,dom,"Szeregowiec , powierzchnia 126,60 m OSTATNI LOKAL",126.6,5,,659999,5213,,Osiedle Władysława IV,Swarzędz,,52.41254,17.08555,10.3,5.63,Miłostowo,7.51,Mogileńska,2.13,Swarzędz,12.25,https://www.otodom.pl/pl/oferta/szeregowiec-powierzchnia-126-60-m-ostatni-lokal-ID4wGwr
67625829,dom,Energooszczędny bliźniak z dużym salonem.,103.35,4,,660000,6386,ul. Rokietnicka,Napachanie,Napachanie,,52.48891,16.7325,16.3,12.82,Os. Sobieskiego,16.95,Ogrody,5.33,Rokietnica,21.46,https://www.otodom.pl/pl/oferta/energooszczedny-blizniak-z-duzym-salonem-ID4zKzb
67734825,dom,Kameralne Osiedle - 6 budynków - Nowoczesna Bryła,103.44,4,,660000,6381,Rokietnicka,Napachanie,Napachanie,,52.4862,16.72952,16.3,12.94,Ogrody,16.65,Ogrody,5.77,Rokietnica,21.16,https://www.otodom.pl/pl/oferta/kameralne-osiedle-6-budynkow-nowoczesna-bryla-ID4AcWb
67730513,dom,"Dom 90,70m2 z własnym ogrodem i miejscami postojowymi",90.7,4,,662000,7299,,Kruszewnia,Kruszewnia,,52.37571,17.10255,12.0,6.93,Franowo,10.85,Franowo,4.25,Swarzędz,15.45,https://www.otodom.pl/pl/oferta/dom-90-70m2-z-wlasnym-ogrodem-i-miejscami-postojowymi-ID4AbND
68188775,dom,"Szeregowiec, duży ogródek 2xmp,osiedle przy rzeczce i terenie zielonym",88.03,4,,662400,7525,ul. Gromadzka,Czapury,Czapury,PASTELOWE nad Głuszynką,52.32035,16.92338,9.8,5.39,Starołęka PKM,7.04,Starołęka PKM,7.71,Poznań Starołęka,13.26,https://www.otodom.pl/pl/oferta/szeregowiec-duzy-ogrodek-2xmp-osiedle-przy-rzeczce-i-terenie-zielonym-ID4C70X
68100093,dom,Nowoczesny dom z ogródkiem na rynku pierwotnym – bez podatku PCC!,108.76,4,,664900,6113,,Siekierki Wielkie,Siekierki Wielkie,,52.3807,17.16348,15.9,11.04,Franowo,14.68,Miłostowo,8.7,Swarzędz,18.83,https://www.otodom.pl/pl/oferta/nowoczesny-dom-z-ogrodkiem-na-rynku-pierwotnym-bez-podatku-pcc-ID4BJVB
68196296,dom,✅Z Widokiem Na Las/ Działka 290 m2 ✅,99.97,4,,665000,6652,Żeromskiego,Mosina,Mosina,,52.24831,16.8663,18.4,14.09,Dębiec PKM,16.94,Dębiec PKM,1.88,Mosina,21.88,https://www.otodom.pl/pl/oferta/z-widokiem-na-las-dzialka-290-m2-ID4C8Yg
63529534,dom,domy na sprzedaż 98 m2 Łęczyca /światłowód,98.56,4,,665000,6747,ul. Krzywa,Łęczyca,Łęczyca,,52.31547,16.87666,11.0,6.65,Dębiec PKM,7.42,Dębiec PKM,3.98,Luboń koło Poznania,12.37,https://www.otodom.pl/pl/oferta/domy-na-sprzedaz-98-m2-leczyca-swiatlowod-ID4iyWU
68183143,dom,✅Z Widokiem Na Las/ Działka 290 m2 ✅,99.97,4,,665000,6652,Żeromskiego,Mosina,Mosina,,52.24831,16.8663,18.4,14.09,Dębiec PKM,16.94,Dębiec PKM,1.88,Mosina,21.88,https://www.otodom.pl/pl/oferta/z-widokiem-na-las-dzialka-290-m2-ID4C5y7
66823560,dom,"Tarnowo Podgórne/Rumianek Szkolna6J,108m,garaż,ogródek,5pokoi+kuchnia",107.6,5,,666000,6190,ul. Szkolna,Rumianek,Tarnowo Podgórne,,52.4591,16.62191,21.9,16.69,Junikowo,19.84,Cmentarna,17.56,Kiekrz,23.81,https://www.otodom.pl/pl/oferta/tarnowo-podgorne-rumianek-szkolna6j-108m-garaz-ogrodek-5pokoi-kuchnia-ID4vnRm
60792257,dom,"Dom nad Jeziorem k.Poznania, pełna infrastruktura!",113.6,4,,668100,5881,,Tarnowo,Tarnowo,Enklawa Nad Jeziorem -wyjątkowe domy koło Poznania,52.41944,17.22844,20.0,15.35,Miłostowo,18.87,Mogileńska,13.48,Swarzędz,23.61,https://www.otodom.pl/pl/oferta/dom-nad-jeziorem-k-poznania-pelna-infrastruktura-ID474Qh
67480060,mieszkanie,Dwupoziomowe 87 m2 | Ogród 126 m2 | JUŻ GOTOWE światłowód,87,4,1,669000,7690,,Gowarzewo,Gowarzewo,,52.35456,17.10923,13.3,7.94,Franowo,15.49,Szwedzka,8.8,Swarzędz,19.79,https://www.otodom.pl/pl/oferta/dwupoziomowe-87-m2-ogrod-126-m2-juz-gotowe-swiatlowod-ID4z8E4
96748006000067,mieszkanie,Dwupoziomowe 87 m2 | Ogród 126 m2 | JUŻ GOTOWE światłowód,87,4,1,669000,7690,,Gowarzewo,Gowarzewo,,52.35456,17.10923,13.3,7.94,Franowo,15.49,Szwedzka,8.8,Swarzędz,19.79,https://www.otodom.pl/pl/oferta/dwupoziomowe-87-m2-ogrod-126-m2-juz-gotowe-swiatlowod-ID4z8E4
67329679,dom,5-pokojowy dom 100m2 + ogródek Bez Pośredników,100.03,5,,669000,6688,Radiowa,Koninko,Koninko,Koninko (domy),52.30313,17.02308,13.2,8.85,Franowo,16.16,Szwedzka,2.41,Gądki,20.45,https://www.otodom.pl/pl/oferta/5-pokojowy-dom-100m2-ogrodek-bez-posrednikow-ID4ywvz
67307567,dom,Niespotykana działka z PRZEPIĘKNYM Widokiem/SUPeR cena do 15.07.26r,89,5,,669000,7517,,Sierosław,Sierosław,,52.41021,16.67807,17.3,11.03,Junikowo,14.12,Cmentarna,10.76,Palędzie,23.14,https://www.otodom.pl/pl/oferta/niespotykana-dzialka-z-przepieknym-widokiem-super-cena-do-15-07-26r-ID4ypLW
67329678,dom,5-pokojowy dom 100m2 + ogródek Bez Pośredników,100.03,5,,669000,6688,Radiowa,Koninko,Koninko,Koninko (domy),52.30313,17.02308,13.2,8.85,Franowo,16.16,Szwedzka,2.41,Gądki,20.45,https://www.otodom.pl/pl/oferta/5-pokojowy-dom-100m2-ogrodek-bez-posrednikow-ID4ywvy
68196291,dom,"✅  Konarzewo/107,10m2/6 pokoi/Wolna Prawa Strona ✅",107.1,6,,669000,6246,,Dopiewo,Konarzewo,,52.34006,16.70835,17.1,9.85,Junikowo,16.96,Rondo Skubiszewskiego,6.74,Palędzie,22.86,https://www.otodom.pl/pl/oferta/konarzewo-107-10m2-6-pokoi-wolna-prawa-strona-ID4C8Yb
67479889,dom,Dom 87 m2 | Ogród 148 m2 | Poddasze 19 m2 | ZAKOŃCZONA BUDOWA,87,4,,669000,7690,Śnieżna,Gowarzewo,Gowarzewo,,52.36452,17.12451,13.8,8.6,Franowo,12.65,Franowo,6.04,Swarzędz,17.24,https://www.otodom.pl/pl/oferta/dom-87-m2-ogrod-148-m2-poddasze-19-m2-zakonczona-budowa-ID4z8Bj
47286048,dom,"Dom bliźniak Konarzewo ul. Młyńska, 6 pokoi",107.1,6,,669000,6246,ul. Młyńska,Konarzewo,Konarzewo,,52.34079,16.71699,16.5,9.3,Junikowo,16.3,Rondo Skubiszewskiego,6.91,Palędzie,22.19,https://www.otodom.pl/pl/oferta/dom-blizniak-konarzewo-ul-mlynska-6-pokoi-ID3cpgc
67309892,dom,"Dom bliźniak Konarzewo ul. Młyńska, 6 pokoi",107.1,6,,669000,6246,ul. Młyńska,Konarzewo,Konarzewo,,52.34088,16.71688,16.5,9.3,Junikowo,16.31,Rondo Skubiszewskiego,6.93,Palędzie,22.2,https://www.otodom.pl/pl/oferta/dom-blizniak-konarzewo-ul-mlynska-6-pokoi-ID4yqnq
67329681,dom,5-pokojowy dom 100m2 + ogródek Bezpośrednio,100.03,5,,669000,6688,Radiowa,Koninko,Koninko,Koninko (domy),52.30313,17.02308,13.2,8.85,Franowo,16.16,Szwedzka,2.41,Gądki,20.45,https://www.otodom.pl/pl/oferta/5-pokojowy-dom-100m2-ogrodek-bezposrednio-ID4ywvB
67329677,dom,5-pokojowy dom 100m2 + ogródek Bez Prowizji,100.03,5,,669000,6688,Radiowa,Koninko,Koninko,Koninko (domy),52.30313,17.02308,13.2,8.85,Franowo,16.16,Szwedzka,2.41,Gądki,20.45,https://www.otodom.pl/pl/oferta/5-pokojowy-dom-100m2-ogrodek-bez-prowizji-ID4ywvx
65423909,dom,"Narożnikowy dom 87,43m2 + działka 400 m2 +poddasze",87.43,4,,669000,7652,,Rabowice,Rabowice,os.Zielone Rabowice - domy w zabudowie bliźniaczej,52.38786,17.11767,12.7,7.96,Franowo,10.83,Mogileńska,4.37,Swarzędz,15.57,https://www.otodom.pl/pl/oferta/naroznikowy-dom-87-43m2-dzialka-400-m2-poddasze-ID4qwKl
68063578,dom,6 pokoi/ gaz/kanaliza/ światłowód/gotowy XI 2025,107.1,6,,669000,6246,Młyńska,Konarzewo,Konarzewo,,52.34396,16.71128,16.7,9.47,Junikowo,16.82,Rondo Skubiszewskiego,6.58,Palędzie,22.72,https://www.otodom.pl/pl/oferta/6-pokoi-gaz-kanaliza-swiatlowod-gotowy-xi-2025-ID4BArE
65671926,dom,"Komfortowe mieszkanie 103,74 m² z garażem| L8_2- GOTOWE DO PRZEKAZANIA",86.92,4,,669000,7697,ul. Malarska,Sypniewo,Koninko,Osiedle Malarska,52.30974,16.99658,11.8,7.64,Unii Lubelskiej,10.08,Starołęka PKM,4.4,Gądki,22.45,https://www.otodom.pl/pl/oferta/komfortowe-mieszkanie-103-74-m-z-garazem-l8-2-gotowe-do-przekazania-ID4rygC
62306593,dom,Lux dom 116m2 nad jeziorem. Wysoki standard! Plaża,116.6,4,,672600,5768,,Tarnowo,Tarnowo,Enklawa Nad Jeziorem -wyjątkowe domy koło Poznania,52.41944,17.22844,20.0,15.35,Miłostowo,18.87,Mogileńska,13.48,Swarzędz,23.61,https://www.otodom.pl/pl/oferta/lux-dom-116m2-nad-jeziorem-wysoki-standard-plaza-ID4dqN3
68195758,dom,"✅Blisko Szkoły, Iii kwartał  2026/Prawy/Kamionki✅",100,4,,675000,6750,,Borówiec,Kamionki,,52.28594,16.98692,14.1,9.91,Starołęka PKM,11.85,Starołęka PKM,7.32,Gądki,23.55,https://www.otodom.pl/pl/oferta/blisko-szkoly-iii-kwartal-2026-prawy-kamionki-ID4C8PA
65061339,dom,"Dom 4-pok, ogród, pompa ciepła, fotowoltaika, gara",103.74,4,,679000,6545,,Szczytniki,Szczytniki,,52.3101,16.9974,11.7,7.63,Unii Lubelskiej,10.15,Starołęka PKM,4.34,Gądki,22.38,https://www.otodom.pl/pl/oferta/dom-4-pok-ogrod-pompa-ciepla-fotowoltaika-gara-ID4oZqr
96506133900067,dom,"Dom 4-pok, ogród, pompa ciepła, fotowoltaika, gara",103.74,4,,679000,6545,,Szczytniki,Szczytniki,,52.3101,16.9974,11.7,7.63,Unii Lubelskiej,10.15,Starołęka PKM,4.34,Gądki,22.38,https://www.otodom.pl/pl/oferta/dom-4-pok-ogrod-pompa-ciepla-fotowoltaika-gara-ID4oZqr
66680816,dom,Dom BARDZO Wysoki STANDARD 4 pokoje STRYCH Ogród,92.85,4,,679000,7313,Jabłoniowa,Siekierki Wielkie,Siekierki Wielkie,,52.3807,17.16348,15.9,11.04,Franowo,14.68,Miłostowo,8.7,Swarzędz,18.83,https://www.otodom.pl/pl/oferta/dom-bardzo-wysoki-standard-4-pokoje-strych-ogrod-ID4wMJ2
68010190,dom,[INWESTYCJA]Janikowo|Swarzędz| Dom 2-lokalowy,296,5,,679000,2294,Turystyczna,Janikowo,Swarzędz,,52.40584,17.0844,10.2,5.56,Miłostowo,6.9,Mogileńska,1.48,Swarzędz,11.64,https://www.otodom.pl/pl/oferta/inwestycjajanikowo-swarzedz-dom-2-lokalowy-ID4Bmyy
67680055,dom,"TWÓJ NOWY DOM W KOSTRZYNIE – WEJDŹ, ZOBACZ I POCZUJ TĘ PRZESTRZEŃ",123.32,5,,679000,5506,,Kostrzyn,Kostrzyn,,52.40098,17.22671,19.9,15.23,Miłostowo,17.47,Mogileńska,12.07,Swarzędz,22.21,https://www.otodom.pl/pl/oferta/twoj-nowy-dom-w-kostrzynie-wejdz-zobacz-i-poczuj-te-przestrzen-ID4zYFN
67725702,dom,"Dom, 110 m², Kostrzyn",110,5,,679000,6173,,Kostrzyn,Kostrzyn,,52.3983,17.22689,19.9,15.26,Miłostowo,16.82,Mogileńska,11.42,Swarzędz,21.56,https://www.otodom.pl/pl/oferta/dom-110-m-kostrzyn-ID4Aay2
68023736,dom,SPRZEDAŻ | NOWY PARTEROWY DOM | LOKAL NR 1 - DZIAŁKA 494 m² |,88.04,4,,680000,7724,Agatowa,Sierosław,Sierosław,,52.41198,16.68196,17.1,10.83,Junikowo,13.69,Cmentarna,10.33,Palędzie,22.71,https://www.otodom.pl/pl/oferta/sprzedaz-nowy-parterowy-dom-lokal-nr-1-dzialka-494-m-ID4Bq52
67941071,dom,Bez skosów/działka 400 m2/polecam,84.36,4,,680000,8061,ul. Piaski,Swarzędz,Swarzędz,,52.4076,17.07351,9.5,4.81,Miłostowo,7.54,Mogileńska,2.12,Swarzędz,12.28,https://www.otodom.pl/pl/oferta/bez-skosow-dzialka-400-m2-polecam-ID4B4zJ
65002716,dom,"Dom, 116 m², Bolechówko",116,5,,680000,5862,Frezjowa,Bolechówko,Bolechówko,,52.52507,17.00211,13.8,8.67,Błażeja,17.14,Jasna Rola,5.41,Bolechowo,18.39,https://www.otodom.pl/pl/oferta/dom-116-m-bolechowko-ID4oKaU
65002723,dom,"Dom, 116 m², Potasze",116,5,,680000,5862,,Potasze,Potasze,,52.5241,17.02602,14.3,9.42,Błażeja,17.77,Błażeja,4.83,Bolechowo,19.33,https://www.otodom.pl/pl/oferta/dom-116-m-potasze-ID4oKb1
65565929,dom,Od dewelopera! Ostatnie wolne lokale! Klimatyzacja,97.64,5,,683000,6995,,Dachowa,Dachowa,,52.30419,17.10051,16.2,10.94,Franowo,15.21,Szwedzka,6.0,Gądki,19.51,https://www.otodom.pl/pl/oferta/od-dewelopera-ostatnie-wolne-lokale-klimatyzacja-ID4r6GZ
66583582,dom,Domy na Os. Nowina I Dachowa – gotowe do odbioru,97.64,5,,683000,6995,,Dachowa,Dachowa,,52.30419,17.10051,16.2,10.94,Franowo,15.21,Szwedzka,6.0,Gądki,19.51,https://www.otodom.pl/pl/oferta/domy-na-os-nowina-i-dachowa-gotowe-do-odbioru-ID4wnqK
68072239,dom,Własny dom z ogrodem  koniec z blokiem!,128.4,3,,688000,5358,,Jerzykowo,Biskupice,,52.46888,17.17562,17.7,13.43,Miłostowo,17.04,Mogileńska,7.48,Kobylnica,20.19,https://www.otodom.pl/pl/oferta/wlasny-dom-z-ogrodem-koniec-z-blokiem-ID4BCHl
68054911,dom,DOM JEDNORODZINNY W ZABUDOWIE BLIŹNIACZEJ,128.4,4,,688000,5358,,Biskupice,Biskupice,,52.46128,17.18,17.7,13.31,Miłostowo,18.3,Mogileńska,8.75,Kobylnica,21.45,https://www.otodom.pl/pl/oferta/dom-jednorodzinny-w-zabudowie-blizniaczej-ID4BybR
64772614,dom,"Piękny dom z ogrodem, aż 103,74 m²| M9_2- GOTOWY DO PRZEKAZANIA!!",86.92,4,,689000,7927,,Sypniewo,Szczytniki,Osiedle Malarska,52.30974,16.99658,11.8,7.64,Unii Lubelskiej,10.08,Starołęka PKM,4.4,Gądki,22.45,https://www.otodom.pl/pl/oferta/piekny-dom-z-ogrodem-az-103-74-m-m9-2-gotowy-do-przekazania-ID4nMjA
67584341,dom,Ogród od zachodu/działka 400 m2/ostatni/gotowy/ promocja ceny do 15-07,84,4,,689000,8202,,Swarzędz,Swarzędz,,52.4076,17.07351,9.5,4.81,Miłostowo,7.54,Mogileńska,2.12,Swarzędz,12.28,https://www.otodom.pl/pl/oferta/ogrod-od-zachodu-dzialka-400-m2-ostatni-gotowy-promocja-ceny-do-15-07-ID4zzM1
67893168,dom,4-pokojowy dom 89m2 Bez Pośredników,89.12,4,,689000,7731,św. Jana,Gwiazdowo,Gwiazdowo,Forall Gwiazdowo,52.41763,17.21036,18.8,14.11,Miłostowo,18.73,Mogileńska,13.34,Swarzędz,23.47,https://www.otodom.pl/pl/oferta/4-pokojowy-dom-89m2-bez-posrednikow-ID4AS76
67893167,dom,4-pokojowy dom 89m2 Bezpośrednio,89.12,4,,689000,7731,św. Jana,Gwiazdowo,Gwiazdowo,Forall Gwiazdowo,52.41763,17.21036,18.8,14.11,Miłostowo,18.73,Mogileńska,13.34,Swarzędz,23.47,https://www.otodom.pl/pl/oferta/4-pokojowy-dom-89m2-bezposrednio-ID4AS75
67923429,dom,Ogród od zachodu/bez skosów/działka 400 m2/gotowy/promocja ceny !,84,4,,689000,8202,,Gortatowo,Gortatowo,,52.42661,17.10624,11.9,7.26,Miłostowo,9.67,Mogileńska,4.29,Swarzędz,14.4,https://www.otodom.pl/pl/oferta/ogrod-od-zachodu-bez-skosow-dzialka-400-m2-gotowy-promocja-ceny-ID4AZZb
67858986,dom,Nowoczesne domy z ogródkami w Gwiazdowie,89.12,4,,689000,7731,ul. św. Jana,Gwiazdowo,Gwiazdowo,,52.41773,17.21119,18.9,14.17,Miłostowo,18.73,Mogileńska,13.33,Swarzędz,23.46,https://www.otodom.pl/pl/oferta/nowoczesne-domy-z-ogrodkami-w-gwiazdowie-ID4AJdM
67883130,dom,Nowoczesne domy dwulokalowe - Więckowice 100m2 + poddasze do aranżacji,100.66,5,,690000,6855,Ryżowa,Więckowice,Więckowice,,52.39218,16.64024,20.0,13.23,Junikowo,17.01,Cmentarna,11.47,Palędzie,26.03,https://www.otodom.pl/pl/oferta/nowoczesne-domy-dwulokalowe-wieckowice-100m2-poddasze-do-aranzacji-ID4APwc
67920852,dom,Niepruszewo - Dom dwulokalowy 110m² - Stan deweloperski,109.7,4,,695000,6335,Malinowa 15,Niepruszewo,Niepruszewo,,52.39103,16.59958,22.7,15.97,Junikowo,19.73,Cmentarna,9.96,Buk,28.75,https://www.otodom.pl/pl/oferta/niepruszewo-dom-dwulokalowy-110m-stan-deweloperski-ID4AZjC
65866314,dom,Nowy dom parterowy 99m2 z ogrodem PARK Kruszewnia,99.95,6,,696000,6963,,Swarzędz,Kruszewnia,,52.4076,17.07351,9.5,4.81,Miłostowo,7.54,Mogileńska,2.12,Swarzędz,12.28,https://www.otodom.pl/pl/oferta/nowy-dom-parterowy-99m2-z-ogrodem-park-kruszewnia-ID4smPU
67828355,dom,GOTOWY,99.49,5,,696328,6999,,Swarzędz,Swarzędz,,52.4076,17.07351,9.5,4.81,Miłostowo,7.54,Mogileńska,2.12,Swarzędz,12.28,https://www.otodom.pl/pl/oferta/gotowy-ID4ABfJ
66484229,mieszkanie,Nowoczesna zabudowa parterowa - Osiedle Góra,98.27,4,0,699000,7113,,Tarnowo Podgórne,Góra,,52.44947,16.67143,18.4,13.27,Junikowo,17.8,Cmentarna,15.52,Kiekrz,21.77,https://www.otodom.pl/pl/oferta/nowoczesna-zabudowa-parterowa-osiedle-gora-ID4uXAh
67192329,mieszkanie,Lokal w nowoczesnej zabudowie parterowej Siekierki Wielkie,92,4,0,699000,7598,ul. Tulecka,Siekierki Wielkie,Siekierki Wielkie,,52.37452,17.15866,15.7,10.74,Franowo,15.71,Miłostowo,9.73,Swarzędz,19.86,https://www.otodom.pl/pl/oferta/lokal-w-nowoczesnej-zabudowie-parterowej-siekierki-wielkie-ID4xWNf
66877129,mieszkanie,Lokal w nowoczesnej zabudowie parterowej Siekierki Wielkie,92,4,0,699000,7598,ul. Tulecka,Siekierki Wielkie,Siekierki Wielkie,,52.37452,17.15866,15.7,10.74,Franowo,15.71,Miłostowo,9.73,Swarzędz,19.86,https://www.otodom.pl/pl/oferta/lokal-w-nowoczesnej-zabudowie-parterowej-siekierki-wielkie-ID4vBNn
96687712900067,mieszkanie,Lokal w nowoczesnej zabudowie parterowej Siekierki Wielkie,92,4,0,699000,7598,ul. Tulecka,Siekierki Wielkie,Siekierki Wielkie,,52.37452,17.15866,15.7,10.74,Franowo,15.71,Miłostowo,9.73,Swarzędz,19.86,https://www.otodom.pl/pl/oferta/lokal-w-nowoczesnej-zabudowie-parterowej-siekierki-wielkie-ID4vBNn
68162742,dom,Dom z ogrodem przy lesie | 4 min. do PKP | 50 tys. taniej !,88.47,4,,699000,7901,,Promno,Promno,,52.45083,17.24351,21.5,16.95,Miłostowo,23.01,Mogileńska,13.36,Kobylnica,26.06,https://www.otodom.pl/pl/oferta/dom-z-ogrodem-przy-lesie-4-min-do-pkp-50-tys-taniej-ID4C0f4
67965147,dom,OSTATNI DOM | 475 m² ogrodu | Bez PCC | Gotowy | 18 min od Poznania,92,4,,699000,7598,os. Owocowe Wzgórze,Skrzynki,Dziećmierowo,,52.26485,17.07377,18.6,13.89,Franowo,18.03,Szwedzka,6.71,Gądki,22.33,https://www.otodom.pl/pl/oferta/ostatni-dom-475-m-ogrodu-bez-pcc-gotowy-18-min-od-poznania-ID4BaQ3
67227187,dom,91 m2 Ostatni Segment Skrzynki ul. Truskawkowa,91,4,,699000,7681,Truskawkowa,Skrzynki,Skrzynki,,52.26491,17.07328,18.6,13.87,Franowo,18.01,Szwedzka,6.69,Gądki,22.31,https://www.otodom.pl/pl/oferta/91-m2-ostatni-segment-skrzynki-ul-truskawkowa-ID4y4Rt
66493708,dom,Energooszczędne parterowe z antresolą 4 pokoje,90,4,,699000,7767,ulica Jana Kochanowskiego,Kostrzyn,Kostrzyn,,52.40598,17.22401,19.7,15.02,Miłostowo,17.29,Mogileńska,11.89,Swarzędz,22.03,https://www.otodom.pl/pl/oferta/energooszczedne-parterowe-z-antresola-4-pokoje-ID4w03a
66936450,dom,Aktualna -Rokietnica ostatni bliźniak -blisko dworca PKP -strych-VIDEO,92,4,,699000,7598,,Rokietnica,Rokietnica,,52.5099,16.75416,16.6,12.17,Os. Sobieskiego,16.18,Os. Sobieskiego,2.27,Rokietnica,24.71,https://www.otodom.pl/pl/oferta/aktualna-rokietnica-ostatni-blizniak-blisko-dworca-pkp-strych-video-ID4vRea
68196478,dom,✅Krosinko - Mosina/ I Etap / Przedsprzedaż ✅,100.55,5,,699000,6952,,Krosinko,Mosina,,52.24831,16.8663,18.4,14.09,Dębiec PKM,16.94,Dębiec PKM,1.88,Mosina,21.88,https://www.otodom.pl/pl/oferta/krosinko-mosina-i-etap-przedsprzedaz-ID4C91c
68196479,dom,✅Krosinko - Mosina/ I Etap / Przedsprzedaż ✅,100.55,5,,699000,6952,,Krosinko,Mosina,,52.24831,16.8663,18.4,14.09,Dębiec PKM,16.94,Dębiec PKM,1.88,Mosina,21.88,https://www.otodom.pl/pl/oferta/krosinko-mosina-i-etap-przedsprzedaz-ID4C91d
68196477,dom,✅Krosinko - Mosina/ I Etap / Przedsprzedaż ✅,100.55,5,,699000,6952,,Krosinko,Mosina,,52.24831,16.8663,18.4,14.09,Dębiec PKM,16.94,Dębiec PKM,1.88,Mosina,21.88,https://www.otodom.pl/pl/oferta/krosinko-mosina-i-etap-przedsprzedaz-ID4C91b
68196381,dom,Dom Jednorodzinny Dwulokalowy Murowana Goślina Osiedle Pod Lasem,108,4,,699000,6472,ul. Pieczarkowa,Łopuchowo,Murowana Goślina,,52.62072,17.11817,26.7,21.81,Błażeja,28.29,Błażeja,11.12,Murowana Goślina,33.81,https://www.otodom.pl/pl/oferta/dom-jednorodzinny-dwulokalowy-murowana-goslina-osiedle-pod-lasem-ID4C8ZD
68196295,dom,✅Na Czerwiec 2026/Działki Od 190-518 m2/Dopiewiec✅,94.75,4,,699000,7377,,Dopiewo,Dopiewiec,,52.36497,16.70332,16.4,9.15,Junikowo,12.41,Cmentarna,5.44,Palędzie,25.2,https://www.otodom.pl/pl/oferta/na-czerwiec-2026-dzialki-od-190-518-m2-dopiewiec-ID4C8Yf
68141807,dom,Nowoczesny bliźniak parterowy 89 m² z fotowoltaiką i magazynem energii,89.33,4,,699000,7825,Ignacego Krasickiego,Dopiewiec,Dopiewiec,Bajkowy Dopiewiec III. Pełna własność! Fotowoltaika z mag. energii!,52.35519,16.71289,16.1,8.85,Junikowo,11.76,Cmentarna,4.79,Palędzie,24.0,https://www.otodom.pl/pl/oferta/nowoczesny-blizniak-parterowy-89-m-z-fotowoltaika-i-magazynem-energii-ID4BUNp
68195759,dom,✅Nowinki/ 146 m2/Garaż/3 Garderoby/ Ostatni Lokal✅,146.36,4,,699000,4776,,Mosina,Nowinki,,,,,,,,,,,,https://www.otodom.pl/pl/oferta/nowinki-146-m2-garaz-3-garderoby-ostatni-lokal-ID4C8PB
68195762,dom,✅ Żabinko / Dom Przy Lesie / Działka 550 m2 ✅,125.23,5,,699000,5582,,Mosina,Mosina,,52.24831,16.8663,18.4,14.09,Dębiec PKM,16.94,Dębiec PKM,1.88,Mosina,21.88,https://www.otodom.pl/pl/oferta/zabinko-dom-przy-lesie-dzialka-550-m2-ID4C8PE
68195765,dom,✅Kamionki/ Nowa Inwestycja/4 sypialnie✅,96.4,5,,699000,7251,,Kamionki,Kamionki,,52.28594,16.98692,14.1,9.91,Starołęka PKM,11.85,Starołęka PKM,7.32,Gądki,23.55,https://www.otodom.pl/pl/oferta/kamionki-nowa-inwestycja-4-sypialnie-ID4C8PH
68195753,dom,✅ Gotowy/Ogrzewanie Gazowe/Siekierki Wielkie ✅,108.93,4,,699000,6417,,Siekierki Wielkie,Siekierki Wielkie,,52.37998,17.16298,15.9,11.0,Franowo,14.79,Miłostowo,8.81,Swarzędz,18.94,https://www.otodom.pl/pl/oferta/gotowy-ogrzewanie-gazowe-siekierki-wielkie-ID4C8Pw
96819647900067,dom,✅Krosinko - Mosina/ I Etap / Przedsprzedaż ✅,100.55,5,,699000,6952,,Krosinko,Mosina,,52.24831,16.8663,18.4,14.09,Dębiec PKM,16.94,Dębiec PKM,1.88,Mosina,21.88,https://www.otodom.pl/pl/oferta/krosinko-mosina-i-etap-przedsprzedaz-ID4C91d
68195110,dom,Nowoczesny nowy bliźniak 95 m² | Pompa ciepła | Ogród | Witobel,95,4,,699000,7358,ul. Podgórna,Witobel,Witobel,,52.27033,16.70746,21.7,15.28,Junikowo,26.55,Rondo Skubiszewskiego,1.5,Stęszew,32.45,https://www.otodom.pl/pl/oferta/nowoczesny-nowy-blizniak-95-m-pompa-ciepla-ogrod-witobel-ID4C8F8
68187448,dom,✅ Gotowy/Ogrzewanie Gazowe/Siekierki Wielkie ✅,108.93,4,,699000,6417,,Siekierki Wielkie,Siekierki Wielkie,,52.37998,17.16298,15.9,11.0,Franowo,14.79,Miłostowo,8.81,Swarzędz,18.94,https://www.otodom.pl/pl/oferta/gotowy-ogrzewanie-gazowe-siekierki-wielkie-ID4C6Fy
66468211,dom,DOM nad jeziorem k. Stęszewa odbiór_III_Q_2026,90,4,,699000,7767,,Sapowice,Stęszew,,52.28176,16.61772,25.7,18.59,Junikowo,31.01,Rondo Skubiszewskiego,7.28,Stęszew,36.9,https://www.otodom.pl/pl/oferta/dom-nad-jeziorem-k-steszewa-odbior-iii-q-2026-ID4uTpW
68135558,dom,"CENA PROMOCYJNA, Dom z ogrodem 97,41 mkw, Czapury koło Poznania!",97.41,5,,699000,7176,Zaciszna,Czapury,Czapury,,52.32058,16.92453,9.8,5.35,Starołęka PKM,7.09,Starołęka PKM,7.76,Poznań Starołęka,13.32,https://www.otodom.pl/pl/oferta/cena-promocyjna-dom-z-ogrodem-97-41-mkw-czapury-kolo-poznania-ID4BTaC
65663618,dom,Cena promocyjna! Dom 97.43 mkw z ogrodem! Czapury,97.43,5,,699000,7174,Zaciszna,Czapury,Czapury,,52.32054,16.92491,9.8,5.35,Starołęka PKM,7.09,Starołęka PKM,7.76,Poznań Starołęka,13.32,https://www.otodom.pl/pl/oferta/cena-promocyjna-dom-97-43-mkw-z-ogrodem-czapury-ID4rv6C
68156144,dom,"NOWE OSIEDLE| 85 m² | DZIAŁKA 518  m² | ŁOWĘCIN, UL. SZKOLNA",84.61,4,,699000,8261,,Swarzędz,Łowęcin,,52.41024,17.07804,9.8,5.11,Miłostowo,6.76,Mogileńska,2.81,Swarzędz,11.5,https://www.otodom.pl/pl/oferta/nowe-osiedle-85-m-dzialka-518-m-lowecin-ul-szkolna-ID4BYvE
67977108,dom,Nowoczesny bliźniak pod Poznaniem - działka 384m2 - Daszewice,90,5,,699000,7767,,Daszewice,Daszewice,,52.29298,16.95914,12.9,8.6,Starołęka PKM,10.09,Starołęka PKM,9.73,Gądki,16.32,https://www.otodom.pl/pl/oferta/nowoczesny-blizniak-pod-poznaniem-dzialka-384m2-daszewice-ID4BdVY
66035140,dom,"Lokal mieszkalny z działką pod Poznaniem w pobliżu Kórnika, Skrzynki",90.75,4,,699000,7702,,Kórnik,Skrzynki,,52.24811,17.08378,20.5,15.87,Franowo,18.58,Szwedzka,7.26,Gądki,22.88,https://www.otodom.pl/pl/oferta/lokal-mieszkalny-z-dzialka-pod-poznaniem-w-poblizu-kornika-skrzynki-ID4t4KU
66035235,dom,"Lokal mieszkalny z działką pod Poznaniem w pobliżu Kórnika, Skrzynki",90.75,4,,699000,7702,,Skrzynki,Kórnik,,52.27046,17.06824,17.9,13.17,Franowo,19.46,Szwedzka,8.14,Gądki,23.75,https://www.otodom.pl/pl/oferta/lokal-mieszkalny-z-dzialka-pod-poznaniem-w-poblizu-kornika-skrzynki-ID4t4Mr
68139875,dom,✅Kamionki/ Nowa Inwestycja/4 sypialnie,96.4,5,,699000,7251,,Kamionki,Kamionki,,52.28594,16.98692,14.1,9.91,Starołęka PKM,11.85,Starołęka PKM,7.32,Gądki,23.55,https://www.otodom.pl/pl/oferta/kamionki-nowa-inwestycja-4-sypialnie-ID4BUif
68127990,dom,Rezerwacja./ światłowód/ lokal lewy,104.77,4,,699000,6672,,Robakowo,Robakowo,,52.29688,17.07484,15.7,10.67,Franowo,14.27,Szwedzka,3.06,Gądki,18.57,https://www.otodom.pl/pl/oferta/rezerwacja-swiatlowod-lokal-lewy-ID4BRcy
68111650,dom,Dom na sprzedaż 108 m2 z dużym ogródkiem,108,4,,699000,6472,ul. Brzoskwiniowa,Siekierki Wielkie,Siekierki Wielkie,,52.39035,17.16834,16.1,11.41,Franowo,13.71,Mogileńska,8.32,Swarzędz,18.45,https://www.otodom.pl/pl/oferta/dom-na-sprzedaz-108-m2-z-duzym-ogrodkiem-ID4BMX0
67562469,dom,Dom w zabudowie szeregowej I PROMOCJA | 15 m2 poddasza GRATIS,103.97,4,,699000,6723,,Biedrusko,Biedrusko,Osiedle Natura Biedrusko - JAKŚBUD,52.54306,16.94337,15.0,8.98,Os. Sobieskiego,10.92,Błażeja,2.83,Bolechowo,17.36,https://www.otodom.pl/pl/oferta/dom-w-zabudowie-szeregowej-i-promocja-15-m2-poddasza-gratis-ID4zu5f
68015597,dom,✅Nowinki/ 146 m2/Garaż/3 Garderoby/ Ostatni Lokal✅,146.36,4,,699000,4776,,Drużyna,Nowinki,,,,,,,,,,,,https://www.otodom.pl/pl/oferta/nowinki-146-m2-garaz-3-garderoby-ostatni-lokal-ID4BnXL
67440941,dom,"Dom nad stawem, gotowy do odbioru!",115.2,5,,699000,6068,,Owińska,Owińska,,52.52362,16.98328,13.3,8.01,Os. Sobieskiego,15.36,Błażeja,2.35,Bolechowo,17.49,https://www.otodom.pl/pl/oferta/dom-nad-stawem-gotowy-do-odbioru-ID4yYt7
67673500,dom,Komfortowy dom z ogrodem blisko lasu!,94.75,4,,699000,7377,Wierzbowa,Dopiewiec,Dopiewiec,,52.36743,16.70528,16.1,8.97,Junikowo,12.93,Cmentarna,5.96,Palędzie,25.71,https://www.otodom.pl/pl/oferta/komfortowy-dom-z-ogrodem-blisko-lasu-ID4zVY4
66443419,dom,POWRÓT OFERTY/Rokietnica/centrum/blisko PKP/infrastruktura/OSTATNI !!!,93,4,,699000,7516,,Rokietnica,Rokietnica,,52.50568,16.75804,16.1,11.74,Os. Sobieskiego,18.92,Os. Sobieskiego,2.37,Rokietnica,23.84,https://www.otodom.pl/pl/oferta/powrot-oferty-rokietnica-centrum-blisko-pkp-infrastruktura-ostatni-ID4uMY3
67718448,dom,Domy bliźniacze 92 m² | nowa inwestycja | Kostrzyn,92,3,,699000,7598,Rolna,Kostrzyn,Kostrzyn,,52.40229,17.213,19.0,14.29,Miłostowo,16.29,Mogileńska,10.9,Swarzędz,21.03,https://www.otodom.pl/pl/oferta/domy-blizniacze-92-m-nowa-inwestycja-kostrzyn-ID4A8F2
67419942,dom,Dom w zabudowie bliźniaczej - WYKOŃCZONY POD KLUCZ - REZERWACJA,84.98,4,,699000,8225,,Koninko,Koninko,,52.31179,17.0161,12.1,7.83,Franowo,10.01,Unii Lubelskiej,3.24,Gądki,21.29,https://www.otodom.pl/pl/oferta/dom-w-zabudowie-blizniaczej-wykonczony-pod-klucz-rezerwacja-ID4yT0q
66945484,dom,"Siekierki Wielkie , nowoczesna zabudowa parterowa ze strefą buforową",92,4,,699000,7598,ul. Tulecka,Siekierki Wielkie,Siekierki Wielkie,,52.37452,17.15866,15.7,10.74,Franowo,15.71,Miłostowo,9.73,Swarzędz,19.86,https://www.otodom.pl/pl/oferta/siekierki-wielkie-nowoczesna-zabudowa-parterowa-ze-strefa-buforowa-ID4vTzS
67192347,dom,Nowoczesna zabudowa parterowa 92m2 Siekierki Wielkie,92.03,4,,699000,7595,ul. Tulecka,Siekierki Wielkie,Siekierki Wielkie,,52.37324,17.16164,16.0,10.95,Franowo,15.9,Miłostowo,9.92,Swarzędz,20.05,https://www.otodom.pl/pl/oferta/nowoczesna-zabudowa-parterowa-92m2-siekierki-wielkie-ID4xWNx
66484265,dom,Osiedle Góra Nowoczesny Dom 100 m2 + poddasze,98.27,4,,699000,7113,,Tarnowo Podgórne,Góra,,52.44947,16.67143,18.4,13.27,Junikowo,17.8,Cmentarna,15.52,Kiekrz,21.77,https://www.otodom.pl/pl/oferta/osiedle-gora-nowoczesny-dom-100-m2-poddasze-ID4uXAR
65085707,dom,Nowoczesna zabudowa parterowa Siekierki Wielkie,92,4,,699000,7598,,Siekierki Wielkie,Siekierki Wielkie,,52.37452,17.15866,15.7,10.74,Franowo,15.71,Miłostowo,9.73,Swarzędz,19.86,https://www.otodom.pl/pl/oferta/nowoczesna-zabudowa-parterowa-siekierki-wielkie-ID4p5Lt
66528832,dom,"Dom Daszewice 123m2,5 pokoi,duży ogród 345m2,garaż",123,5,,699900,5690,Rogalińska 11,Daszewice,Daszewice,,52.28883,16.9625,13.4,9.1,Starołęka PKM,10.36,Starołęka PKM,10.0,Gądki,16.59,https://www.otodom.pl/pl/oferta/dom-daszewice-123m2-5-pokoi-duzy-ogrod-345m2-garaz-ID4w9bG
68095417,dom,BLIŹNIAK*WIERZYCE*30minPOZNAN*PIEKNAOKOLICA*DUZADZIALKA*3minMARKET*LAS,96,3,,699999,7292,os. Pod sosnami,Wierzyce,Wierzyce,,,,,,,,,,,,https://www.otodom.pl/pl/oferta/blizniakwierzyce30minpoznanpieknaokolicaduzadzialka3minmarketlas-ID4BIJb
67962737,dom,"Bliźniak parterowy 92 m2 z dużym ogrodem, Borkowice",92,4,,700000,7609,ul. Nowa,Mosina,Mosina,,52.24321,16.85196,19.2,14.85,Dębiec PKM,15.92,Dębiec PKM,0.55,Mosina,20.87,https://www.otodom.pl/pl/oferta/blizniak-parterowy-92-m2-z-duzym-ogrodem-borkowice-ID4Badb
66118913,dom,Dom z ogrodem i garażem blisko Poznania |Daszewice,123,5,,707600,5753,ul. Rogalińska,Daszewice,Daszewice,,52.29251,16.96319,13.0,8.71,Starołęka PKM,9.94,Starołęka PKM,9.58,Gądki,16.16,https://www.otodom.pl/pl/oferta/dom-z-ogrodem-i-garazem-blisko-poznania-daszewice-ID4tqy5
68158283,dom,Dom 93 m² blisko Poznania | Skrajny segment | Ogród 128 m²,93.12,4,,709000,7614,,Gowarzewo,Gowarzewo,,52.35398,17.10832,13.3,7.91,Franowo,15.57,Szwedzka,8.88,Swarzędz,19.87,https://www.otodom.pl/pl/oferta/dom-93-m-blisko-poznania-skrajny-segment-ogrod-128-m-ID4BZ59
67111618,dom,C2 | 87 m2 + Ogród 128 m2 | 4 pokoje | 2026 GOTOWE do odbioru,87,4,,709000,8149,,Gowarzewo,Gowarzewo,,52.36452,17.12451,13.8,8.6,Franowo,12.65,Franowo,6.04,Swarzędz,17.24,https://www.otodom.pl/pl/oferta/c2-87-m2-ogrod-128-m2-4-pokoje-2026-gotowe-do-odbioru-ID4xANs
96711161800067,dom,C2 | 87 m2 + Ogród 128 m2 | 4 pokoje | 2026 GOTOWE do odbioru,87,4,,709000,8149,,Gowarzewo,Gowarzewo,,52.36452,17.12451,13.8,8.6,Franowo,12.65,Franowo,6.04,Swarzędz,17.24,https://www.otodom.pl/pl/oferta/c2-87-m2-ogrod-128-m2-4-pokoje-2026-gotowe-do-odbioru-ID4xANs
67673947,dom,Funkcjonalny dom z ogrodem blisko lasu!,95.92,4,,709000,7392,Wierzbowa,Dopiewiec,Dopiewiec,,52.3706,16.70265,16.2,9.08,Junikowo,13.32,Cmentarna,6.35,Palędzie,26.11,https://www.otodom.pl/pl/oferta/funkcjonalny-dom-z-ogrodem-blisko-lasu-ID4zX5h
68141745,dom,Sprzedam Dom bliźniaczy parterowy z dużą działką w Rokietnicy .,81.6,3,,715000,8762,ul. Witkowa,Rokietnica,Rokietnica,,52.51752,16.75748,17.0,12.35,Os. Sobieskiego,15.67,Os. Sobieskiego,1.81,Rokietnica,25.91,https://www.otodom.pl/pl/oferta/sprzedam-dom-blizniaczy-parterowy-z-duza-dzialka-w-rokietnicy-ID4BUMp
64454570,dom,DOM 110M2 Działka 550m2 Poznań Krzesiny Nowoczesne Budown Pompa Ciepła,110,4,,719000,6536,,Krzesiny,Poznań,,52.34324,16.97685,7.8,3.71,Unii Lubelskiej,4.85,Starołęka PKM,1.98,Poznań Krzesiny,11.35,https://www.otodom.pl/pl/oferta/dom-110m2-dzialka-550m2-poznan-krzesiny-nowoczesne-budown-pompa-ciepla-ID4mrzQ
67784689,dom,Wygodne domy Szczepankowo,111.82,4,,719000,6430,Przyjazna,Szczepankowo,Poznań,,52.35294,17.02679,8.8,3.63,Franowo,6.21,Szwedzka,5.6,Poznań Krzesiny,10.51,https://www.otodom.pl/pl/oferta/wygodne-domy-szczepankowo-ID4ApTr
68182174,dom,"Dom w Luboniu 92,15 m² | Lokal 2",92.15,4,,719000,7802,,Luboń,Luboń,,52.34163,16.87561,8.4,3.97,Dębiec PKM,4.3,Dębiec PKM,1.7,Luboń koło Poznania,9.48,https://www.otodom.pl/pl/oferta/dom-w-luboniu-92-15-m-lokal-2-ID4C5iu
68182125,dom,Dom w Luboniu | Działka 134 m² | Lokal 3,92.09,4,,719000,7808,,Luboń,Luboń,,52.34163,16.87561,8.4,3.97,Dębiec PKM,4.3,Dębiec PKM,1.7,Luboń koło Poznania,9.48,https://www.otodom.pl/pl/oferta/dom-w-luboniu-dzialka-134-m-lokal-3-ID4C5hH
67910568,dom,"Dom z tarasem, klimatyzacją i ogrodem",90.3,4,,719000,7962,Sezamowa,Gortatowo,Gortatowo,,52.42661,17.10624,11.9,7.26,Miłostowo,9.67,Mogileńska,4.29,Swarzędz,14.4,https://www.otodom.pl/pl/oferta/dom-z-tarasem-klimatyzacja-i-ogrodem-ID4AVDK
68126091,dom,dom gotowy 6 pok. / 109 m2/ dz dla lok. 409 m2,109,6,,719000,6596,,Krosinko,Krosinko,,52.23229,16.81521,21.2,16.76,Dębiec PKM,18.47,Dębiec PKM,3.81,Mosina,23.42,https://www.otodom.pl/pl/oferta/dom-gotowy-6-pok-109-m2-dz-dla-lok-409-m2-ID4BQHW
67941100,dom,Bez skosów/działka 550 m2/polecam,84.36,4,,719000,8523,sielanka,Gortatowo,Gortatowo,,52.42661,17.10624,11.9,7.26,Miłostowo,9.67,Mogileńska,4.29,Swarzędz,14.4,https://www.otodom.pl/pl/oferta/bez-skosow-dzialka-550-m2-polecam-ID4B4Ac
65250178,dom,"Dom 5 sypialni 2 łazienki 111m2 ,został jeden lok",111,5,,719000,6477,,Krosinko,Krosinko,,52.23241,16.81537,21.1,16.74,Dębiec PKM,18.45,Dębiec PKM,3.8,Mosina,23.4,https://www.otodom.pl/pl/oferta/dom-5-sypialni-2-lazienki-111m2-zostal-jeden-lok-ID4pMye
67781528,dom,"Bliźniak deweloperka na granicy między Krzyszkowem, a Pamiątkowem",112,4,,719000,6420,,Pamiątkowo,Pamiątkowo,,52.52413,16.7159,19.6,15.19,Os. Sobieskiego,21.1,Os. Sobieskiego,5.0,Rokietnica,26.02,https://www.otodom.pl/pl/oferta/blizniak-deweloperka-na-granicy-miedzy-krzyszkowem-a-pamiatkowem-ID4Ap4s
67027171,dom,Osiedle 4 Pory Roku - dom,89.85,4,,720000,8013,ul. Zimowa,Gowarzewo,Gowarzewo,,52.35432,17.1126,13.6,8.17,Franowo,15.6,Szwedzka,8.37,Swarzędz,19.9,https://www.otodom.pl/pl/oferta/osiedle-4-pory-roku-dom-ID4xePp
68196069,dom,✅Nowa Inwestycja/Blisko Szkoły/Tereny Rekreacyjne✅,126.5,5,,720000,5692,,Mosina,Mosina,,52.24831,16.8663,18.4,14.09,Dębiec PKM,16.94,Dębiec PKM,1.88,Mosina,21.88,https://www.otodom.pl/pl/oferta/nowa-inwestycja-blisko-szkoly-tereny-rekreacyjne-ID4C8UB
68112068,dom,✅Nowa Inwestycja/Blisko Szkoły/Tereny Rekreacyjne✅,126.5,5,,720000,5692,,Mosina,Mosina,,52.24831,16.8663,18.4,14.09,Dębiec PKM,16.94,Dębiec PKM,1.88,Mosina,21.88,https://www.otodom.pl/pl/oferta/nowa-inwestycja-blisko-szkoly-tereny-rekreacyjne-ID4BN3K
68110923,dom,Nowy bliźniak w Mosinie w cenie mieszkania.,115.9,5,,720000,6212,,Mosina,Mosina,,52.23283,16.82917,20.8,16.38,Dębiec PKM,17.7,Dębiec PKM,2.23,Mosina,22.65,https://www.otodom.pl/pl/oferta/nowy-blizniak-w-mosinie-w-cenie-mieszkania-ID4BMLh
66484274,mieszkanie,Zabudowa parterowa Lusówko Os. Morskie,98.27,4,0,723000,7357,ul. Bosmańska,Lusówko,Lusówko,,52.43631,16.64045,20.1,14.42,Junikowo,20.1,Cmentarna,15.32,Palędzie,24.07,https://www.otodom.pl/pl/oferta/zabudowa-parterowa-lusowko-os-morskie-ID4uXB0
66484285,dom,Nowoczesna zabudowa parterowa 100m2,98.27,4,,723000,7357,ul. Bosmańska,Lusówko,Lusówko,,52.43631,16.64045,20.1,14.42,Junikowo,20.1,Cmentarna,15.32,Palędzie,24.07,https://www.otodom.pl/pl/oferta/nowoczesna-zabudowa-parterowa-100m2-ID4uXBb
68066567,dom,"Dom 133 m², nowoczesna klasyka, natura i spokój",133,5,,726877,5465,ul. Kozakowa,Łopuchowo,Łopuchowo,,52.61476,17.09083,25.3,20.29,Błażeja,26.38,Błażeja,9.21,Murowana Goślina,31.91,https://www.otodom.pl/pl/oferta/dom-133-m-nowoczesna-klasyka-natura-i-spokoj-ID4BBdR
66985017,mieszkanie,Świątniki - mieszkanie z ogrodem w malowniczej okolicy,119.63,4,1,729000,6094,,Świątniki,Świątniki,,52.22939,16.95213,19.9,15.53,Starołęka PKM,18.39,Starołęka PKM,9.04,Puszczykówko,30.99,https://www.otodom.pl/pl/oferta/swiatniki-mieszkanie-z-ogrodem-w-malowniczej-okolicy-ID4x3Rw
67051891,dom,Połowa domu Daszewice/Kamionki 107m2+30m2 strych,107,4,,729000,6813,,Daszewice,Kamionki,,52.29356,16.96056,12.9,8.55,Starołęka PKM,10.09,Starołęka PKM,9.73,Gądki,16.32,https://www.otodom.pl/pl/oferta/polowa-domu-daszewice-kamionki-107m2-30m2-strych-ID4xlg7
68047328,dom,>>> Wille nad wodą - 30 000 zł rabatu na 1 dom <<<,91.74,5,,729000,7946,ul. Turkusowa,Jerzykowo,Jerzykowo,,52.47982,17.17796,18.4,14.2,Miłostowo,18.86,Mogileńska,9.31,Kobylnica,22.01,https://www.otodom.pl/pl/oferta/wille-nad-woda-30-000-zl-rabatu-na-1-dom-ID4Bvdy
68183141,dom,✅ Daszewice / Pompa Ciepła / Czerwiec 2027  ✅,106.97,4,,729000,6815,ul. Rogalińska,Kamionki,Daszewice,,52.29144,16.96161,13.1,8.8,Starołęka PKM,10.1,Starołęka PKM,9.73,Gądki,16.32,https://www.otodom.pl/pl/oferta/daszewice-pompa-ciepla-czerwiec-2027-ID4C5y5
68050195,dom,"Ruszył II etap sprzedaży, dom parterowy 95 m2, duże działki!",95,5,,729000,7674,Piekarska,Gortatowo,Gortatowo,,52.42661,17.10624,11.9,7.26,Miłostowo,9.67,Mogileńska,4.29,Swarzędz,14.4,https://www.otodom.pl/pl/oferta/ruszyl-ii-etap-sprzedazy-dom-parterowy-95-m2-duze-dzialki-ID4BvXN
63774661,dom,"Rokietnica Centrum ul.Paryska, pow. 100,82m2",100.82,4,,729000,7231,,Rokietnica,Rokietnica,,52.51192,16.73185,17.9,13.64,Os. Sobieskiego,19.34,Os. Sobieskiego,3.44,Rokietnica,24.26,https://www.otodom.pl/pl/oferta/rokietnica-centrum-ul-paryska-pow-100-82m2-ID4jAHz
67673616,dom,"Funkcjonalny dom z ogrodem, blisko lasu!",94.75,4,,729000,7694,Wierzbowa,Dopiewiec,Dopiewiec,,52.36729,16.70517,16.2,8.98,Junikowo,12.92,Cmentarna,5.95,Palędzie,25.7,https://www.otodom.pl/pl/oferta/funkcjonalny-dom-z-ogrodem-blisko-lasu-ID4zVZV
67232398,dom,MEGA PROMOCJA/4 pok/garderoba/duża działka/ogrz podł/parking,106.3,4,,730000,6867,ul. Koszycy,Rokietnica,Rokietnica,,52.51717,16.73825,17.9,13.49,Os. Sobieskiego,19.91,Os. Sobieskiego,3.18,Rokietnica,24.83,https://www.otodom.pl/pl/oferta/mega-promocja-4-pok-garderoba-duza-dzialka-ogrz-podl-parking-ID4y6dv
67456861,dom,Promno Park_17,88.47,4,,734301,8300,ul.Rzepichy,Promno-Stacja,Promno,Promno Park,52.47224,17.21312,20.2,15.86,Miłostowo,19.68,Mogileńska,10.13,Kobylnica,22.83,https://www.otodom.pl/pl/oferta/promno-park-17-ID4z2BT
68198760,dom,"GOTOWY DOM NA SPRZEDAŻ, UL. SEZAMOWA, GORTATOWO!",83.3,4,,739000,8872,Sezamowa,Gortatowo,Gortatowo,,52.42661,17.10624,11.9,7.26,Miłostowo,9.67,Mogileńska,4.29,Swarzędz,14.4,https://www.otodom.pl/pl/oferta/gotowy-dom-na-sprzedaz-ul-sezamowa-gortatowo-ID4C9C0
67457304,dom,Dom z garażem i dużym ogrodem w cenie mieszkania w Poznaniu – 101 m²,101.35,4,,739000,7292,Lubczykowa,Rumianek,Tarnowo Podgórne,,52.46124,16.6213,22.0,16.85,Junikowo,19.99,Cmentarna,17.71,Kiekrz,23.96,https://www.otodom.pl/pl/oferta/dom-z-garazem-i-duzym-ogrodem-w-cenie-mieszkania-w-poznaniu-101-m-ID4z2J2
66850786,dom,Nowoczesny Dom Stęszew,148.4,5,,739999,4987,,Stęszew,Stęszew,,52.28688,16.70659,20.5,13.84,Junikowo,16.97,Cmentarna,1.59,Stęszew,23.03,https://www.otodom.pl/pl/oferta/nowoczesny-dom-steszew-ID4vuVu
68025041,dom,Gołuski koło Plewisk willa miejska przy Poznaniu,96.22,4,,740000,7691,ul. Dopiewska,Gołuski,Plewiska,,52.35907,16.75314,13.4,6.17,Junikowo,7.9,Cmentarna,2.36,Palędzie,18.06,https://www.otodom.pl/pl/oferta/goluski-kolo-plewisk-willa-miejska-przy-poznaniu-ID4Bqq5
68124806,dom,"Ostatni lokal w inwestycji wrócił do sprzedaży! 4pokoje 84,62 m2!",84.64,4,,744717,8799,ul. gen. Stanisława Taczaka,Koziegłowy,Koziegłowy,,52.44484,17.00232,6.2,3.83,Lechicka/Naramowicka,6.54,Włodarska,4.2,Czerwonak,9.15,https://www.otodom.pl/pl/oferta/ostatni-lokal-w-inwestycji-wrocil-do-sprzedazy-4pokoje-84-62-m2-ID4BQnc
68120428,dom,"Dom, 114 m², Dachowa",114,5,,748000,6561,,Dachowa,Dachowa,,52.30575,17.07423,14.9,9.79,Franowo,12.7,Szwedzka,3.18,Gądki,17.0,https://www.otodom.pl/pl/oferta/dom-114-m-dachowa-ID4BPeA
67089243,dom,Forall Osiedle Harmonia  | 4-pok. | 2_1,93.8,4,,749000,7985,ul. Stajenna,Pawłowice,Pawłowice,Forall Osiedle Harmonia,52.49561,16.79521,13.5,8.99,Os. Sobieskiego,13.91,Lutycka Szpital,2.61,Kiekrz,18.23,https://www.otodom.pl/pl/oferta/forall-osiedle-harmonia-4-pok-2-1-ID4xuYz
67089242,dom,Forall Osiedle Harmonia  | 4-pok. | 2_2,93.8,4,,749000,7985,ul. Stajenna,Pawłowice,Pawłowice,Forall Osiedle Harmonia,52.49561,16.79521,13.5,8.99,Os. Sobieskiego,13.91,Lutycka Szpital,2.61,Kiekrz,18.23,https://www.otodom.pl/pl/oferta/forall-osiedle-harmonia-4-pok-2-2-ID4xuYy
68197234,dom,Swarzędz Gortatowo Orkiszowa 9/2 - ostatni lokal na dużej działce,80.78,4,,749000,9272,,Swarzędz,Gortatowo,,52.4076,17.07351,9.5,4.81,Miłostowo,7.54,Mogileńska,2.12,Swarzędz,12.28,https://www.otodom.pl/pl/oferta/swarzedz-gortatowo-orkiszowa-9-2-ostatni-lokal-na-duzej-dzialce-ID4C9do
68196294,dom,✅Dopiewiec /Na Granicy z Dopiewo/Lewy Wolny✅,114.45,5,,749000,6544,Bajkowa,Dopiewo,Dopiewiec,,52.36497,16.70332,16.4,9.15,Junikowo,12.41,Cmentarna,5.44,Palędzie,25.2,https://www.otodom.pl/pl/oferta/dopiewiec-na-granicy-z-dopiewo-lewy-wolny-ID4C8Ye
68196289,dom,✅ Konarzewo/ 4 pokoje +salon/ Iii  kw 2026✅,106.1,5,,749000,7059,,Dopiewo,Konarzewo,,52.34006,16.70835,17.1,9.85,Junikowo,16.96,Rondo Skubiszewskiego,6.74,Palędzie,22.86,https://www.otodom.pl/pl/oferta/konarzewo-4-pokoje-salon-iii-kw-2026-ID4C8Y9
68195755,dom,"✅Działka 405 m2, Spokojna Okolica✅",118.57,5,,749000,6317,,Robakowo,Dachowa,,52.3022,17.0894,15.8,10.68,Franowo,13.87,Szwedzka,4.66,Gądki,18.17,https://www.otodom.pl/pl/oferta/dzialka-405-m2-spokojna-okolica-ID4C8Px
68046395,dom,"PROMOCJA Dom Gardenia w Rokietnicy. Duży ogród, pełna infrastruktura",101.4,6,,749000,7387,Gajowa,Rokietnica,Rokietnica,,52.51359,16.74704,17.2,12.78,Os. Sobieskiego,16.29,Os. Sobieskiego,2.38,Rokietnica,24.7,https://www.otodom.pl/pl/oferta/promocja-dom-gardenia-w-rokietnicy-duzy-ogrod-pelna-infrastruktura-ID4BwYw
68046511,dom,"PROMOCJA Dom Gardenia w Rokietnicy. Duży ogród, pełna infrastruktura",101.4,6,,749000,7387,ul. Gajowa,Rokietnica,Rokietnica,,52.51359,16.74704,17.2,12.78,Os. Sobieskiego,16.29,Os. Sobieskiego,2.38,Rokietnica,24.7,https://www.otodom.pl/pl/oferta/promocja-dom-gardenia-w-rokietnicy-duzy-ogrod-pelna-infrastruktura-ID4Bv0n
67089245,dom,Forall Osiedle Harmonia  | 4-pok. | 4_1,93.8,4,,749000,7985,ul. Stajenna,Pawłowice,Pawłowice,Forall Osiedle Harmonia,52.49561,16.79521,13.5,8.99,Os. Sobieskiego,13.91,Lutycka Szpital,2.61,Kiekrz,18.23,https://www.otodom.pl/pl/oferta/forall-osiedle-harmonia-4-pok-4-1-ID4xuYB
68141088,dom,5 pok./ gaz/ gotowy lipiec 2026r,106.1,5,,749000,7059,Dopiewska,Konarzewo,Konarzewo,,52.34075,16.6988,17.6,10.39,Junikowo,17.18,Rondo Skubiszewskiego,8.97,Palędzie,23.08,https://www.otodom.pl/pl/oferta/5-pok-gaz-gotowy-lipiec-2026r-ID4BUBO
60462790,dom,Ostatnie 3 domy parterowe. Zapraszamy!,96,4,,749000,7802,,Rokietnica,Rokietnica,,52.51359,16.74704,17.2,12.78,Os. Sobieskiego,16.29,Os. Sobieskiego,2.38,Rokietnica,24.7,https://www.otodom.pl/pl/oferta/ostatnie-3-domy-parterowe-zapraszamy-ID45H8i
68127815,dom,5 pok./ gaz/ gotowy II kwartał 2026r,111.9,5,,749000,6693,Bajkowa,Dopiewiec,Dopiewiec,,52.37378,16.68017,17.6,10.54,Junikowo,14.45,Cmentarna,7.48,Palędzie,27.76,https://www.otodom.pl/pl/oferta/5-pok-gaz-gotowy-ii-kwartal-2026r-ID4BR9J
66734907,dom,"PROMOCJA Dom Gardenia w Rokietnicy. Duży ogród, pełna infrastruktura",101.36,6,,749000,7390,ul. Gajowa,Rokietnica,Rokietnica,,52.50106,16.72828,17.3,13.45,Os. Sobieskiego,18.91,Ogrody,4.34,Rokietnica,23.42,https://www.otodom.pl/pl/oferta/promocja-dom-gardenia-w-rokietnicy-duzy-ogrod-pelna-infrastruktura-ID4v0Nt
68046444,dom,PROMOCJA Gotowy Dom pod Poznaniem GARDENIA. Duży ogród,101.4,6,,749000,7387,,Rokietnica,Rokietnica,,52.51359,16.74704,17.2,12.78,Os. Sobieskiego,16.29,Os. Sobieskiego,2.38,Rokietnica,24.7,https://www.otodom.pl/pl/oferta/promocja-gotowy-dom-pod-poznaniem-gardenia-duzy-ogrod-ID4BwZi
67793506,dom,"✅Działka 405 m2, Spokojna Okolica✅",118.57,5,,749000,6317,,Robakowo,Dachowa,,52.3022,17.0894,15.8,10.68,Franowo,13.87,Szwedzka,4.66,Gądki,18.17,https://www.otodom.pl/pl/oferta/dzialka-405-m2-spokojna-okolica-ID4AsbE
66053520,dom,"EKO Nowoczesny 101 m2, wys. standard + dz. 400 m2",101.15,4,,749000,7405,Nagietkowa,Dachowa,Dachowa,,52.30419,17.10051,16.2,10.94,Franowo,15.21,Szwedzka,6.0,Gądki,19.51,https://www.otodom.pl/pl/oferta/eko-nowoczesny-101-m2-wys-standard-dz-400-m2-ID4t9xm
67801699,dom,"Bliźniak 98,5 m2 - podwójna ściana- taras od południa -własność gruntu",98.5,4,,750000,7614,,Rokietnica,Rokietnica,,52.50471,16.72862,17.5,13.56,Os. Sobieskiego,19.7,Os. Sobieskiego,4.24,Rokietnica,24.62,https://www.otodom.pl/pl/oferta/blizniak-98-5-m2-podwojna-sciana-taras-od-poludnia-wlasnosc-gruntu-ID4AujN
68015635,dom,"Własność gruntu - bliźniak 98,5 m2 - podwójna ściana-taras od południa",98.5,4,,750000,7614,,Rokietnica,Rokietnica,,52.50458,16.72952,17.5,13.49,Os. Sobieskiego,19.55,Os. Sobieskiego,4.09,Rokietnica,24.47,https://www.otodom.pl/pl/oferta/wlasnosc-gruntu-blizniak-98-5-m2-podwojna-sciana-taras-od-poludnia-ID4BnYn
68013667,dom,Świetne domy/ciekawy projekt/wysoki standard/wszystkie media,98.5,4,,750000,7614,,Rokietnica,Rokietnica,,52.51359,16.74704,17.2,12.78,Os. Sobieskiego,16.29,Os. Sobieskiego,2.38,Rokietnica,24.7,https://www.otodom.pl/pl/oferta/swietne-domy-ciekawy-projekt-wysoki-standard-wszystkie-media-ID4BnsD
66346521,dom,Energoszczędny dom w Robakowie,120,5,,750000,6250,Poznańska,Robakowo,Robakowo,,52.30727,17.07464,14.8,9.66,Franowo,12.51,Szwedzka,3.36,Gądki,16.81,https://www.otodom.pl/pl/oferta/energoszczedny-dom-w-robakowie-ID4unLb
66463426,dom,Twój nowy dom w zielonej części Dopiewca – komfort,98,4,,750000,7653,,Dopiewiec,Dopiewiec,,52.36781,16.70354,16.3,9.07,Junikowo,13.02,Cmentarna,6.05,Palędzie,25.8,https://www.otodom.pl/pl/oferta/twoj-nowy-dom-w-zielonej-czesci-dopiewca-komfort-ID4uSaK
66686232,dom,Segment bliźniaka - Tarnowo Podgórne,88.84,4,,750000,8442,,Tarnowo Podgórne,Tarnowo Podgórne,,52.46981,16.64626,20.6,15.97,Junikowo,20.13,Cmentarna,17.85,Kiekrz,24.1,https://www.otodom.pl/pl/oferta/segment-blizniaka-tarnowo-podgorne-ID4wO8o
66800596,dom,Promno Park_38,88.47,4,,751995,8500,ul.Rzepichy,Promno-Stacja,Promno,Promno Park,52.47224,17.21312,20.2,15.86,Miłostowo,19.68,Mogileńska,10.13,Kobylnica,22.83,https://www.otodom.pl/pl/oferta/promno-park-38-ID4vhSY
66332241,mieszkanie,4-pokojowe mieszkanie 80m2 + taras Bez Prowizji,80.74,4,4,757129,9377,Bielicowa,Naramowice,Poznań,Naramowice Odnova,52.44846,16.96199,4.9,1.15,Os. Łokietka,1.71,Naramowice,5.43,Poznań Wschód,6.83,https://www.otodom.pl/pl/oferta/4-pokojowe-mieszkanie-80m2-taras-bez-prowizji-ID4uk2R
68196293,dom,✅ Chomęcice /I kwartał 2027 ✅,112,5,,759000,6777,,Konarzewo,Chomęcice,,,,,,,,,,,,https://www.otodom.pl/pl/oferta/chomecice-i-kwartal-2027-ID4C8Yd
68159653,dom,Pięknie położona Działka/droga gminna z kostki ! CENA Przedsprzedażowa,89,5,,759000,8528,ul. Gościniec,Dąbrówka,Dąbrówka,,52.37851,16.7515,12.8,5.67,Junikowo,9.14,Cmentarna,3.33,Palędzie,24.3,https://www.otodom.pl/pl/oferta/pieknie-polozona-dzialka-droga-gminna-z-kostki-cena-przedsprzedazowa-ID4BZrf
65667592,dom,"Bezpośrednio Dom na Sprzedaż Sasinowo, Rogalinek",104.92,5,,759000,7234,Poznańska 1B,Sasinowo,Rogalinek,,52.25816,16.9038,16.8,12.42,Starołęka PKM,12.8,Starołęka PKM,4.95,Puszczykówko,19.02,https://www.otodom.pl/pl/oferta/bezposrednio-dom-na-sprzedaz-sasinowo-rogalinek-ID4rx8I
68127818,dom,6 pokoi/ gaz/kanaliza/ światłowód/gotowy XI 2025,107.1,6,,759000,7087,,Mosina,Mosina,,52.24541,16.84706,19.0,14.69,Dębiec PKM,15.54,Dębiec PKM,1.25,Mosina,20.49,https://www.otodom.pl/pl/oferta/6-pokoi-gaz-kanaliza-swiatlowod-gotowy-xi-2025-ID4BR9M
68127817,dom,6 pokoi/ gaz/kanaliza/ światłowód/gotowy XI 2025,107.1,6,,759000,7087,Kamienna,Krosno,Krosno,,52.22375,16.82914,21.7,17.35,Dębiec PKM,18.56,Dębiec PKM,2.72,Mosina,23.5,https://www.otodom.pl/pl/oferta/6-pokoi-gaz-kanaliza-swiatlowod-gotowy-xi-2025-ID4BR9L
67853846,dom,"Dom, 86 m², Borówiec",86,5,,760000,8837,ul. Kempingowa,Borówiec,Borówiec,,52.2732,17.05041,17.0,12.51,Franowo,16.37,Szwedzka,4.44,Gądki,20.67,https://www.otodom.pl/pl/oferta/dom-86-m-borowiec-ID4AHSS
66613938,dom,Dom PARTEROWY - oferta wyczerpana - Info o nowym etapie w czerwcu 2026,88.41,3,,760020,8597,,Skórzewo,Skórzewo,Nowe domy w Skórzewie-zachodnia sypialnia Poznania,52.3903,16.79074,9.9,3.07,Junikowo,4.65,Cmentarna,6.84,Palędzie,11.9,https://www.otodom.pl/pl/oferta/dom-parterowy-oferta-wyczerpana-info-o-nowym-etapie-w-czerwcu-2026-ID4wwkm
67630535,dom,"4 pokoje wysoki standard, piękna okolica, duża działka, świetny dojazd",95,4,,769000,8095,,Trzcielin,Trzcielin,,52.32499,16.6891,19.0,11.84,Junikowo,18.11,Rondo Skubiszewskiego,6.63,Stęszew,24.01,https://www.otodom.pl/pl/oferta/4-pokoje-wysoki-standard-piekna-okolica-duza-dzialka-swietny-dojazd-ID4zLN5
68196288,dom,✅ Chomęcice / Zamknięte Osiedle / 5 pokoi✅,106.75,5,,769000,7204,,Konarzewo,Chomęcice,,,,,,,,,,,,https://www.otodom.pl/pl/oferta/chomecice-zamkniete-osiedle-5-pokoi-ID4C8Y8
68195764,dom,✅Kamionki/ Nowa Inwestycja/4 sypialnie✅,96.4,5,,769000,7977,,Kamionki,Kamionki,,52.28594,16.98692,14.1,9.91,Starołęka PKM,11.85,Starołęka PKM,7.32,Gądki,23.55,https://www.otodom.pl/pl/oferta/kamionki-nowa-inwestycja-4-sypialnie-ID4C8PG
68183349,dom,Dom /gaz/fotowoltaika/5 pokoi,99,5,,769000,7768,,Gołuski,Gołuski,,52.36086,16.74484,13.9,6.6,Junikowo,8.69,Cmentarna,3.15,Palędzie,18.85,https://www.otodom.pl/pl/oferta/dom-gaz-fotowoltaika-5-pokoi-ID4C5Br
68146623,dom,✅Kamionki/ Nowa Inwestycja/4 sypialnie,96.4,5,,769000,7977,,Kamionki,Kamionki,,52.28594,16.98692,14.1,9.91,Starołęka PKM,11.85,Starołęka PKM,7.32,Gądki,23.55,https://www.otodom.pl/pl/oferta/kamionki-nowa-inwestycja-4-sypialnie-ID4BV35
68143821,dom,Dom /gaz/fotowoltaika/5 pokoi,99,5,,769000,7768,,Gołuski,Gołuski,,52.36086,16.74484,13.9,6.6,Junikowo,8.69,Cmentarna,3.15,Palędzie,18.85,https://www.otodom.pl/pl/oferta/dom-gaz-fotowoltaika-5-pokoi-ID4BWjT
68127991,dom,Rezerwacja Gotowy lipiec 2026r./ światłowód/ lokal prawy,104.77,4,,769000,7340,,Robakowo,Robakowo,,52.29688,17.07484,15.7,10.67,Franowo,14.27,Szwedzka,3.06,Gądki,18.57,https://www.otodom.pl/pl/oferta/rezerwacja-gotowy-lipiec-2026r-swiatlowod-lokal-prawy-ID4BRcz
68127895,dom,Gotowy wrzesień 2026r./ światłowód,103.32,4,,769000,7443,,Robakowo,Robakowo,,52.29688,17.07484,15.7,10.67,Franowo,14.27,Szwedzka,3.06,Gądki,18.57,https://www.otodom.pl/pl/oferta/gotowy-wrzesien-2026r-swiatlowod-ID4BRb1
66396664,dom,Nowy dom z dużą działką Dachowa / Robakowo,102.58,5,,769000,7497,Kręta,Dachowa,Dachowa,,52.30159,17.07171,15.1,10.11,Franowo,13.26,Szwedzka,3.07,Gądki,17.56,https://www.otodom.pl/pl/oferta/nowy-dom-z-duza-dzialka-dachowa-robakowo-ID4uANV
67913629,dom,II etap/5  pokoi dz. dla lokalu 423 m2,102.58,5,,769000,7497,,Dachowa,Dachowa,,52.30099,17.07859,15.5,10.4,Franowo,13.7,Szwedzka,3.52,Gądki,18.0,https://www.otodom.pl/pl/oferta/ii-etap-5-pokoi-dz-dla-lokalu-423-m2-ID4AXr7
67661963,dom,"Nowoczesny, energooszczędny dom w Kostrzynie",107,4,,769000,7187,"ul. Kostrzyn centrum, nowy dom, dom do sprzedaży",Kostrzyn,Kostrzyn,,52.39032,17.2157,19.2,14.61,Franowo,17.72,Mogileńska,12.33,Swarzędz,22.46,https://www.otodom.pl/pl/oferta/nowoczesny-energooszczedny-dom-w-kostrzynie-ID4zTXZ
68087433,dom,"Imponujący Bliźniak 120m2, 5 pokoi - Gotowy do Zamieszkania!",120.3,5,,770000,6401,Aksamitkowa 3,Dopiewo,Dopiewo,,52.35646,16.67792,18.3,11.06,Junikowo,14.18,Cmentarna,7.21,Palędzie,25.48,https://www.otodom.pl/pl/oferta/imponujacy-blizniak-120m2-5-pokoi-gotowy-do-zamieszkania-ID4BGEp
67829051,dom,Szeregowiec Czerwonak,101,5,,779000,7713,ul. łącznik,Czerwonak,Czerwonak,,52.46167,16.98391,6.8,2.75,Błażeja,7.33,Lechicka/Naramowicka,0.87,Czerwonak,9.44,https://www.otodom.pl/pl/oferta/szeregowiec-czerwonak-ID4ABqX
68135525,dom,Ostatnie domy w starej cenie!,102.26,6,,779000,7618,,Napachanie,Rokietnica,,52.4922,16.73335,16.5,12.85,Os. Sobieskiego,17.42,Ogrody,4.97,Rokietnica,21.93,https://www.otodom.pl/pl/oferta/ostatnie-domy-w-starej-cenie-ID4BTa5
68119530,dom,"II etap w sprzedaży, domy gotowe  Iii kwart.  2026",102.26,6,,779000,7618,,Napachanie,Rokietnica,,52.4922,16.73335,16.5,12.85,Os. Sobieskiego,17.42,Ogrody,4.97,Rokietnica,21.93,https://www.otodom.pl/pl/oferta/ii-etap-w-sprzedazy-domy-gotowe-iii-kwart-2026-ID4BP06
68088281,dom,Wyjątkowe domy w zabudowie bliźniaczej Napachanie,102.26,6,,779000,7618,Teatralna,Rokietnica,Napachanie,,52.49688,16.73531,16.7,12.86,Os. Sobieskiego,17.86,Ogrody,4.43,Rokietnica,22.37,https://www.otodom.pl/pl/oferta/wyjatkowe-domy-w-zabudowie-blizniaczej-napachanie-ID4BGS5
68044087,dom,"szybki termin odbioru, 6 pokoi.",102.26,6,,779000,7618,,Napachanie,Rokietnica,,52.4922,16.73335,16.5,12.85,Os. Sobieskiego,17.42,Ogrody,4.97,Rokietnica,21.93,https://www.otodom.pl/pl/oferta/szybki-termin-odbioru-6-pokoi-ID4Bwnh
67916078,dom,"Nowe  osiedle:  Rokietnica, Kiekrz, Napachanie",102.26,6,,779000,7618,,Napachanie,Napachanie,,52.4922,16.73335,16.5,12.85,Os. Sobieskiego,17.42,Ogrody,4.97,Rokietnica,21.93,https://www.otodom.pl/pl/oferta/nowe-osiedle-rokietnica-kiekrz-napachanie-ID4AY4C
67981069,dom,Dzień Pokazowy NA Budowie 30.05,102.26,6,,779000,7618,,Napachanie,Rokietnica,,52.4922,16.73335,16.5,12.85,Os. Sobieskiego,17.42,Ogrody,4.97,Rokietnica,21.93,https://www.otodom.pl/pl/oferta/dzien-pokazowy-na-budowie-30-05-ID4BeYR
67974417,dom,Dzień otwarty 30.05. Osiedle Zielone Wzgórze,102.26,6,,779000,7618,Teatralna,Rokietnica,Napachanie,,52.4986,16.73566,16.8,12.89,Os. Sobieskiego,18.05,Ogrody,4.26,Rokietnica,22.56,https://www.otodom.pl/pl/oferta/dzien-otwarty-30-05-osiedle-zielone-wzgorze-ID4Bdfz
67880259,dom,Dzień Otwarty 30.05 Osiedle Napachanie,102.26,6,,779000,7618,Teatralna,Rokietnica,Napachanie,,52.49588,16.73506,16.6,12.84,Os. Sobieskiego,17.71,Ogrody,4.6,Rokietnica,22.22,https://www.otodom.pl/pl/oferta/dzien-otwarty-30-05-osiedle-napachanie-ID4AOKT
68167193,dom,Dom w Jaszkowie,104,4,,780000,7500,,Trzykolne Młyny,Jaszkowo,,52.20866,16.99994,22.7,18.36,Starołęka PKM,28.78,Rondo Żegrze,13.51,Puszczykówko,31.93,https://www.otodom.pl/pl/oferta/dom-w-jaszkowie-ID4C1oR
62856680,dom,OKAZJA Nowoczesne domy w Kiekrzu/Rogierówko/podwójna ściana,105,4,,780000,7429,,Rogierówko,Kiekrz,,52.48637,16.75093,15.1,11.54,Os. Sobieskiego,17.92,Os. Sobieskiego,3.52,Kiekrz,23.48,https://www.otodom.pl/pl/oferta/okazja-nowoczesne-domy-w-kiekrzu-rogierowko-podwojna-sciana-ID4fJTq
67996284,mieszkanie,DWUSTRONNE|3 jasne pok |2 Łazienki|garderoba,82.9,4,2,780400,9414,,Winogrady,Poznań,,52.41154,16.91456,1.3,0.09,Most Teatralny,0.55,Wielkopolska,2.84,Poznań Główny,2.0,https://www.otodom.pl/pl/oferta/dwustronne-3-jasne-pok-2-lazienki-garderoba-ID4BiVg
66857797,dom,dom na sprzedaż Krosno/Mosina - duży ogród - pełne media,112.31,4,,786000,6998,,Mosina,Krosno,,52.24321,16.85196,19.2,14.85,Dębiec PKM,15.92,Dębiec PKM,0.55,Mosina,20.87,https://www.otodom.pl/pl/oferta/dom-na-sprzedaz-krosno-mosina-duzy-ogrod-pelne-media-ID4vvLz
68006345,dom,"Nowoczesny dom z garażem  5 pokoi /pompa ciepła / fotowoltaika 6,5 kWp",131.6,5,,786000,5973,ul. Dębowa,Siekierki Wielkie,Siekierki Wielkie,,52.37996,17.15404,15.3,10.4,Franowo,15.52,Miłostowo,9.54,Swarzędz,19.67,https://www.otodom.pl/pl/oferta/nowoczesny-dom-z-garazem-5-pokoi-pompa-ciepla-fotowoltaika-6-5-kwp-ID4Blyx
67508127,dom,Nowoczesny Dom Dwulokalowy w Poznaniu,88.79,4,,789000,8886,ul. Krzyżówki,Zieliniec,Poznań,,52.42479,17.06672,9.2,4.65,Miłostowo,6.94,Mogileńska,3.2,Kobylnica,11.68,https://www.otodom.pl/pl/oferta/nowoczesny-dom-dwulokalowy-w-poznaniu-ID4zfVL
64976801,dom,"Przestronny dom 6-pok, ogród, garaż, fotowoltaika!",128.6,6,,789000,6135,,Szczytniki,Szczytniki,,52.3101,16.9974,11.7,7.63,Unii Lubelskiej,10.15,Starołęka PKM,4.34,Gądki,22.38,https://www.otodom.pl/pl/oferta/przestronny-dom-6-pok-ogrod-garaz-fotowoltaika-ID4oDqW
96750812700067,dom,Nowoczesny Dom Dwulokalowy w Poznaniu,88.79,4,,789000,8886,ul. Krzyżówki,Zieliniec,Poznań,,52.42479,17.06672,9.2,4.65,Miłostowo,6.94,Mogileńska,3.2,Kobylnica,11.68,https://www.otodom.pl/pl/oferta/nowoczesny-dom-dwulokalowy-w-poznaniu-ID4zfVL
68195760,dom,✅ Iii Etap Osiedla W Budowie / Dachowa  ✅,104.39,5,,789000,7558,,Robakowo,Dachowa,,52.3022,17.0894,15.8,10.68,Franowo,13.87,Szwedzka,4.66,Gądki,18.17,https://www.otodom.pl/pl/oferta/iii-etap-osiedla-w-budowie-dachowa-ID4C8PC
68063346,dom,DUŻA piękna Działka 500m2 Przedsprzedażowa Cena do 30.07.2026r.,110,5,,789000,7173,,Jankowice,Lusówko,,52.44068,16.64444,19.9,14.38,Junikowo,19.24,Cmentarna,16.96,Kiekrz,23.21,https://www.otodom.pl/pl/oferta/duza-piekna-dzialka-500m2-przedsprzedazowa-cena-do-30-07-2026r-ID4BAnU
67817810,dom,"Dom w zab. bliżniaczej Czerwonak ul. Wschodnia 14, 95m2 dz. 295m2",95,4,,789000,8305,ul. Wschodnia,Czerwonak,Czerwonak,,52.47088,16.98809,7.9,3.41,Błażeja,8.66,Lechicka/Naramowicka,1.21,Czerwonak,10.77,https://www.otodom.pl/pl/oferta/dom-w-zab-blizniaczej-czerwonak-ul-wschodnia-14-95m2-dz-295m2-ID4AywE
67942531,dom,"Nowy dom 99,62m2 z ogrodem PARK Kruszewnia PROMOCJA",99.62,5,,789000,7920,Zimorodka,Kruszewnia,Kruszewnia,,52.37571,17.10255,12.0,6.93,Franowo,10.85,Franowo,4.25,Swarzędz,15.45,https://www.otodom.pl/pl/oferta/nowy-dom-99-62m2-z-ogrodem-park-kruszewnia-promocja-ID4B4Xh
68127992,dom,II etap/ 5 pokoi /dz. dla lokalu 423 m2,102.58,5,,789000,7692,,Robakowo,Robakowo,,52.30969,17.06432,14.1,9.08,Franowo,11.71,Szwedzka,4.44,Gądki,16.01,https://www.otodom.pl/pl/oferta/ii-etap-5-pokoi-dz-dla-lokalu-423-m2-ID4BRcA
65671927,dom,"Duży dom aż 145,39 m² z garażem | 6 pokoi | L8_1-GOTOWY DO PRZEKAZANIA",128.57,6,,789000,6137,ul. Malarska,Sypniewo,Koninko,Osiedle Malarska,52.30974,16.99658,11.8,7.64,Unii Lubelskiej,10.08,Starołęka PKM,4.4,Gądki,22.45,https://www.otodom.pl/pl/oferta/duzy-dom-az-145-39-m-z-garazem-6-pokoi-l8-1-gotowy-do-przekazania-ID4rygD
66932609,dom,Dom z zabudowie szeregowej,96.85,6,,789000,8147,ul. Rzymska,Tarnowo Podgórne,Tarnowo Podgórne,Osiedle Nowe Tarnowo (domy),52.47544,16.66278,19.8,15.49,Junikowo,18.66,Cmentarna,11.56,Kiekrz,22.63,https://www.otodom.pl/pl/oferta/dom-z-zabudowie-szeregowej-ID4vQed
67822376,dom,"Dom, 103,89 m², Swarzędz",103.89,5,,789000,7595,,Swarzędz,Swarzędz,,52.4076,17.07351,9.5,4.81,Miłostowo,7.54,Mogileńska,2.12,Swarzędz,12.28,https://www.otodom.pl/pl/oferta/dom-103-89-m-swarzedz-ID4AzHi
68079795,dom,GOTOWY JUŻ W SIERPNIU 2026,107,5,,790000,7383,ul. Lazurowa,Konarzewo,Konarzewo,,52.34363,16.69366,17.8,10.56,Junikowo,17.69,Rondo Skubiszewskiego,8.54,Palędzie,23.59,https://www.otodom.pl/pl/oferta/gotowy-juz-w-sierpniu-2026-ID4BEFd
67700533,dom,GOTOWY -> Bliźniak NAROŻNY -95 m2 -działka 453 m2 -2 m-ca parking.,95.5,4,,790000,8272,,Rokietnica,Rokietnica,,52.50552,16.73106,17.5,13.43,Os. Sobieskiego,19.54,Os. Sobieskiego,4.08,Rokietnica,24.46,https://www.otodom.pl/pl/oferta/gotowy-blizniak-narozny-95-m2-dzialka-453-m2-2-m-ca-parking-ID4A405
68118679,dom,Ostatni/gotowy/duża działka 453 m2/ogrz podłog w całym budynku/kostka,95.47,4,,790000,8275,,Rokietnica,Rokietnica,,52.51359,16.74704,17.2,12.78,Os. Sobieskiego,16.29,Os. Sobieskiego,2.38,Rokietnica,24.7,https://www.otodom.pl/pl/oferta/ostatni-gotowy-duza-dzialka-453-m2-ogrz-podlog-w-calym-budynku-kostka-ID4BOMn
68103110,dom,"Nowoczesny dom 115,49 m² | Działka 360 m² | Pompa ciepła i rolety",115.49,4,,790000,6840,ul. Rolna,Tarnowo Podgórne,Tarnowo Podgórne,,52.4627,16.67527,18.5,13.93,Junikowo,16.56,Cmentarna,14.28,Kiekrz,20.53,https://www.otodom.pl/pl/oferta/nowoczesny-dom-115-49-m-dzialka-360-m-pompa-ciepla-i-rolety-ID4BKJg
67895543,dom,"Bliźniak | 83,3m2 | Czmoniec | ogród | pod klucz",83.3,5,,790000,9484,Magnoliowa,Czmoniec,Czmoniec,,52.18225,17.01761,25.8,21.51,Starołęka PKM,32.37,Rondo Żegrze,17.5,Mosina,35.53,https://www.otodom.pl/pl/oferta/blizniak-83-3m2-czmoniec-ogrod-pod-klucz-ID4ASJp
61544094,dom,Nowoczesny dom 124m2 w Tarnowie Podgórnym na sprzedaż. Duża działka,124,4,,790000,6371,ul. Rolna,Tarnowo Podgórne,Tarnowo Podgórne,,52.46281,16.6849,17.9,13.44,Junikowo,16.71,Cmentarna,14.43,Kiekrz,20.68,https://www.otodom.pl/pl/oferta/nowoczesny-dom-124m2-w-tarnowie-podgornym-na-sprzedaz-duza-dzialka-ID4aeqG
96789554300067,dom,"Bliźniak | 83,3m2 | Czmoniec | ogród | pod klucz",83.3,5,,790000,9484,Magnoliowa,Czmoniec,Czmoniec,,52.18225,17.01761,25.8,21.51,Starołęka PKM,32.37,Rondo Żegrze,17.5,Mosina,35.53,https://www.otodom.pl/pl/oferta/blizniak-83-3m2-czmoniec-ogrod-pod-klucz-ID4ASJp
65661403,dom,"Nowy dom wykończony pod klucz, Czmoniec, pod lasem",83,,,790000,9518,Czmoniec,Kórnik,Czmoniec,,52.24811,17.08378,20.5,15.87,Franowo,18.58,Szwedzka,7.26,Gądki,22.88,https://www.otodom.pl/pl/oferta/nowy-dom-wykonczony-pod-klucz-czmoniec-pod-lasem-ID4rwvT
67933813,dom,"Nowy, Parterowy, urządzony, Gotowy do wprowadzenia",86.66,3,,790000,9116,"NOWY, PARTEROWY, KOMFORTOWY,GOTOWY DO ZAMIESZKANIA",Otusz,Otusz,,52.35657,16.57496,25.0,17.89,Junikowo,33.02,Rondo Skubiszewskiego,5.14,Buk,38.91,https://www.otodom.pl/pl/oferta/nowy-parterowy-urzadzony-gotowy-do-wprowadzenia-ID4B2GF
65662100,dom,"Nowy dom wykończony pod klucz, Czmoniec, pod lasem",83,,,790000,9518,Czmoniec,Czmoniec,Czmoniec,,52.18475,17.01356,25.4,21.17,Starołęka PKM,31.96,Rondo Żegrze,17.09,Mosina,35.12,https://www.otodom.pl/pl/oferta/nowy-dom-wykonczony-pod-klucz-czmoniec-pod-lasem-ID4rwI8
65204653,mieszkanie,Grunwald Park | mieszkanie 4-pok. | 8F_8,80.56,4,0,797544,9900,ul. Wieruszowska,Junikowo,Poznań,Grunwald Park,52.38208,16.84141,6.9,0.37,Cmentarna,1.08,Cmentarna,4.6,Poznań Górczyn,9.03,https://www.otodom.pl/pl/oferta/grunwald-park-mieszkanie-4-pok-8f-8-ID4pAHX
68163680,dom,Kiekrz/4 pokoje/2 łazienki/działka ok 300 m2/ogrz podłogowe,105.03,4,,798000,7598,,Rogierówko,Kiekrz,,52.48637,16.75093,15.1,11.54,Os. Sobieskiego,17.92,Os. Sobieskiego,3.52,Kiekrz,23.48,https://www.otodom.pl/pl/oferta/kiekrz-4-pokoje-2-lazienki-dzialka-ok-300-m2-ogrz-podlogowe-ID4C0uc
96816368000067,dom,Kiekrz/4 pokoje/2 łazienki/działka ok 300 m2/ogrz podłogowe,105.03,4,,798000,7598,,Rogierówko,Kiekrz,,52.48637,16.75093,15.1,11.54,Os. Sobieskiego,17.92,Os. Sobieskiego,3.52,Kiekrz,23.48,https://www.otodom.pl/pl/oferta/kiekrz-4-pokoje-2-lazienki-dzialka-ok-300-m2-ogrz-podlogowe-ID4C0uc
